<?xml version="1.0" encoding="UTF-8" standalone="no" ?>
<gpx>
<!--Centre Waypoint 52.964541267 -6.7692584435-->
<wpt lat="52.964541267" lon="-6.7692584435">
<name>randomcircle39 lat/lon 52.964541267,-6.7692584435</name>
</wpt>
<!--Waypoints 1-->
<wpt lat="52.9641666666667" lon="-6.76888888888889">
<name>WinterSolsticeSun Bottom 0 Bearing 149.794358066292 Elevation 7.69292324748735 lat/lon 52.9641666666667,-6.76888888888889</name>
</wpt>
<!--Waypoints 2-->
<wpt lat="52.9638888888889" lon="-6.76861111111111">
<name>WinterSolsticeSun Bottom 1 Bearing 149.260021520961 Elevation 7.50706879737898 lat/lon 52.9638888888889,-6.76861111111111</name>
</wpt>
<!--Waypoints 3-->
<wpt lat="52.9641666666667" lon="-6.76861111111111">
<name>WinterSolsticeSun Bottom 2 Bearing 145.152985520255 Elevation 5.96944755868315 lat/lon 52.9641666666667,-6.76861111111111</name>
</wpt>
<!--Waypoints 4-->
<wpt lat="52.9641666666667" lon="-6.76861111111111">
<name>WinterSolsticeSun Centre 3 Bearing 144.591413176245 Elevation 6.02729995317994 lat/lon 52.9641666666667,-6.76861111111111</name>
</wpt>
<!--Waypoints 5-->
<wpt lat="52.9641666666667" lon="-6.76861111111111">
<name>WinterSolsticeSun Top 4 Bearing 144.056853432216 Elevation 6.09369039717687 lat/lon 52.9641666666667,-6.76861111111111</name>
</wpt>
<!--Waypoints 6-->
<wpt lat="52.9641666666667" lon="-6.77">
<name>WinterSolsticeSun Top 5 Bearing 227.73921289958 Elevation 0.658644196445562 lat/lon 52.9641666666667,-6.77</name>
</wpt>
<!--Waypoints 7-->
<wpt lat="52.9641666666667" lon="-6.77">
<name>WinterSolsticeSun Centre 6 Bearing 227.136614131979 Elevation 0.683976635659258 lat/lon 52.9641666666667,-6.77</name>
</wpt>
<!--Waypoints 8-->
<wpt lat="52.9641666666667" lon="-6.77">
<name>WinterSolsticeSun Centre 7 Bearing 227.136614131979 Elevation 0.683976635659258 lat/lon 52.9641666666667,-6.77</name>
</wpt>
<!--Waypoints 9-->
<wpt lat="52.9641666666667" lon="-6.77">
<name>WinterSolsticeSun Centre 8 Bearing 227.116614123225 Elevation 0.693542928270906 lat/lon 52.9641666666667,-6.77</name>
</wpt>
<!--Waypoints 10-->
<wpt lat="52.9641666666667" lon="-6.77">
<name>WinterSolsticeSun Bottom 9 Bearing 226.508202555545 Elevation 0.719316596985093 lat/lon 52.9641666666667,-6.77</name>
</wpt>
<!--Waypoints 11-->
<wpt lat="52.965" lon="-6.76833333333333">
<name>SummerSolsticeSun Bottom 10 Bearing 55.4858531343288 Elevation 4.61985100486422 lat/lon 52.965,-6.76833333333333</name>
</wpt>
<!--Waypoints 12-->
<wpt lat="52.965" lon="-6.76833333333333">
<name>SummerSolsticeSun Centre 11 Bearing 55.0003668027411 Elevation 4.62542216330846 lat/lon 52.965,-6.76833333333333</name>
</wpt>
<!--Waypoints 13-->
<wpt lat="52.965" lon="-6.76833333333333">
<name>SummerSolsticeSun Top 12 Bearing 54.5220225794534 Elevation 4.63656684887293 lat/lon 52.965,-6.76833333333333</name>
</wpt>
<!--Waypoints 14-->
<wpt lat="52.9672222222222" lon="-6.77388888888889">
<name>SummerSolsticeSun Top 13 Bearing 313.838883674228 Elevation 0.0857515358799348 lat/lon 52.9672222222222,-6.77388888888889</name>
</wpt>
<!--Waypoints 15-->
<wpt lat="52.9672222222222" lon="-6.77388888888889">
<name>SummerSolsticeSun Centre 14 Bearing 313.337254782938 Elevation 0.0601893400096883 lat/lon 52.9672222222222,-6.77388888888889</name>
</wpt>
<!--Waypoints 16-->
<wpt lat="52.9672222222222" lon="-6.77388888888889">
<name>SummerSolsticeSun Bottom 15 Bearing 312.821382020825 Elevation 0.0425504126276888 lat/lon 52.9672222222222,-6.77388888888889</name>
</wpt>
<!--Waypoints 17-->
<wpt lat="52.9644444444444" lon="-6.76833333333333">
<name>EquinoxSun Bottom 16 Bearing 101.857618619288 Elevation 8.58347471418424 lat/lon 52.9644444444444,-6.76833333333333</name>
</wpt>
<!--Waypoints 18-->
<wpt lat="52.9644444444444" lon="-6.76833333333333">
<name>EquinoxSun Centre 17 Bearing 101.426410818285 Elevation 8.60197698045834 lat/lon 52.9644444444444,-6.76833333333333</name>
</wpt>
<!--Waypoints 19-->
<wpt lat="52.9644444444444" lon="-6.76833333333333">
<name>EquinoxSun Top 18 Bearing 101.008753003629 Elevation 8.62975836506378 lat/lon 52.9644444444444,-6.76833333333333</name>
</wpt>
<!--Waypoints 20-->
<wpt lat="52.9644444444444" lon="-6.76833333333333">
<name>EquinoxSun Top 19 Bearing 99.8490745519759 Elevation 7.79555242165453 lat/lon 52.9644444444444,-6.76833333333333</name>
</wpt>
<!--Waypoints 21-->
<wpt lat="52.9644444444444" lon="-6.76833333333333">
<name>EquinoxSun Centre 20 Bearing 99.8463405261075 Elevation 7.46661536693899 lat/lon 52.9644444444444,-6.76833333333333</name>
</wpt>
<!--Waypoints 22-->
<wpt lat="52.9644444444444" lon="-6.76833333333333">
<name>EquinoxSun Bottom 21 Bearing 99.8436106019544 Elevation 7.13800678952946 lat/lon 52.9644444444444,-6.76833333333333</name>
</wpt>
<!--Waypoints 23-->
<wpt lat="52.9644444444444" lon="-6.76805555555556">
<name>EquinoxSun Bottom 22 Bearing 99.3641685767193 Elevation 6.7920219444123 lat/lon 52.9644444444444,-6.76805555555556</name>
</wpt>
<!--Waypoints 24-->
<wpt lat="52.9644444444444" lon="-6.76805555555556">
<name>EquinoxSun Centre 23 Bearing 98.8942155071486 Elevation 6.77868901502677 lat/lon 52.9644444444444,-6.76805555555556</name>
</wpt>
<!--Waypoints 25-->
<wpt lat="52.9644444444444" lon="-6.76805555555556">
<name>EquinoxSun Top 24 Bearing 98.4310266476572 Elevation 6.76980566290797 lat/lon 52.9644444444444,-6.76805555555556</name>
</wpt>
<!--Waypoints 26-->
<wpt lat="52.9688888888889" lon="-7.12472222222222">
<name>EquinoxSun Top 25 Bearing 271.244991859176 Elevation -0.0292558698380284 lat/lon 52.9688888888889,-7.12472222222222</name>
</wpt>
<!--Waypoints 27-->
<wpt lat="52.9675" lon="-7.13555555555556">
<name>EquinoxSun Centre 26 Bearing 270.884781427211 Elevation -0.080988536398378 lat/lon 52.9675,-7.13555555555556</name>
</wpt>
<!--Waypoints 28-->
<wpt lat="52.9661111111111" lon="-7.26888888888889">
<name>EquinoxSun Bottom 27 Bearing 270.444729340578 Elevation -0.0827337390760526 lat/lon 52.9661111111111,-7.26888888888889</name>
</wpt>
<!--Waypoints 29-->
<wpt lat="52.9641666666667" lon="-6.76888888888889">
<name>MoonMinusEMinusI Bottom 28 Bearing 164.257520566388 Elevation 5.37595977711672 lat/lon 52.9641666666667,-6.76888888888889</name>
</wpt>
<!--Waypoints 30-->
<wpt lat="52.9641666666667" lon="-6.76888888888889">
<name>MoonMinusEMinusI Centre 29 Bearing 163.511340168021 Elevation 5.49247192262955 lat/lon 52.9641666666667,-6.76888888888889</name>
</wpt>
<!--Waypoints 31-->
<wpt lat="52.9641666666667" lon="-6.76888888888889">
<name>MoonMinusEMinusI Top 30 Bearing 162.791033054909 Elevation 5.60851558228355 lat/lon 52.9641666666667,-6.76888888888889</name>
</wpt>
<!--Waypoints 32-->
<wpt lat="52.9641666666667" lon="-6.76972222222222">
<name>MoonMinusEMinusI Top 31 Bearing 210.17573553863 Elevation 2.03445197335485 lat/lon 52.9641666666667,-6.76972222222222</name>
</wpt>
<!--Waypoints 33-->
<wpt lat="52.9641666666667" lon="-6.76972222222222">
<name>MoonMinusEMinusI Centre 32 Bearing 209.319101093689 Elevation 2.0675052597797 lat/lon 52.9641666666667,-6.76972222222222</name>
</wpt>
<!--Waypoints 34-->
<wpt lat="52.9641666666667" lon="-6.76972222222222">
<name>MoonMinusEMinusI Bottom 33 Bearing 208.436649194758 Elevation 2.10197973035069 lat/lon 52.9641666666667,-6.76972222222222</name>
</wpt>
<!--Waypoints 35-->
<wpt lat="52.9641666666667" lon="-6.76861111111111">
<name>MoonMinusEPlusI Bottom 34 Bearing 136.687525489187 Elevation 6.90164675721915 lat/lon 52.9641666666667,-6.76861111111111</name>
</wpt>
<!--Waypoints 36-->
<wpt lat="52.9641666666667" lon="-6.76861111111111">
<name>MoonMinusEPlusI Centre 35 Bearing 136.215518639775 Elevation 6.96061205534558 lat/lon 52.9641666666667,-6.76861111111111</name>
</wpt>
<!--Waypoints 37-->
<wpt lat="52.9641666666667" lon="-6.76861111111111">
<name>MoonMinusEPlusI Top 36 Bearing 135.728396209506 Elevation 7.01081055465959 lat/lon 52.9641666666667,-6.76861111111111</name>
</wpt>
<!--Waypoints 38-->
<wpt lat="52.8533333333333" lon="-7.05416666666667">
<name>MoonMinusEPlusI Top 37 Bearing 237.14851633177 Elevation 0.175051518269444 lat/lon 52.8533333333333,-7.05416666666667</name>
</wpt>
<!--Waypoints 39-->
<wpt lat="52.8519444444444" lon="-7.05166666666667">
<name>MoonMinusEPlusI Centre 38 Bearing 236.609754817663 Elevation 0.202795036879224 lat/lon 52.8519444444444,-7.05166666666667</name>
</wpt>
<!--Waypoints 40-->
<wpt lat="52.8511111111111" lon="-7.04861111111111">
<name>MoonMinusEPlusI Bottom 39 Bearing 236.104931532029 Elevation 0.21143605300519 lat/lon 52.8511111111111,-7.04861111111111</name>
</wpt>
<!--Waypoints 41-->
<wpt lat="52.965" lon="-6.76805555555556">
<name>MoonPlusEMinusI Bottom 40 Bearing 66.4308384762985 Elevation 4.89554637946595 lat/lon 52.965,-6.76805555555556</name>
</wpt>
<!--Waypoints 42-->
<wpt lat="52.965" lon="-6.76805555555556">
<name>MoonPlusEMinusI Centre 41 Bearing 65.9568985673694 Elevation 4.87699493427514 lat/lon 52.965,-6.76805555555556</name>
</wpt>
<!--Waypoints 43-->
<wpt lat="52.965" lon="-6.76805555555556">
<name>MoonPlusEMinusI Top 42 Bearing 65.483442406748 Elevation 4.85949558857765 lat/lon 52.965,-6.76805555555556</name>
</wpt>
<!--Waypoints 44-->
<wpt lat="53.2041666666667" lon="-7.39527777777778">
<name>MoonPlusEMinusI Top 43 Bearing 302.728708031069 Elevation -0.224185100407826 lat/lon 53.2041666666667,-7.39527777777778</name>
</wpt>
<!--Waypoints 45-->
<wpt lat="53.2080555555556" lon="-7.41722222222222">
<name>MoonPlusEMinusI Centre 44 Bearing 302.263900537116 Elevation -0.23326574066991 lat/lon 53.2080555555556,-7.41722222222222</name>
</wpt>
<!--Waypoints 46-->
<wpt lat="53.2025" lon="-7.41527777777778">
<name>MoonPlusEMinusI Bottom 45 Bearing 301.765328626883 Elevation -0.223521945537622 lat/lon 53.2025,-7.41527777777778</name>
</wpt>
<!--Waypoints 47-->
<wpt lat="52.9652777777778" lon="-6.76833333333333">
<name>MoonPlusEPlusI Bottom 46 Bearing 46.0419833308268 Elevation 4.00034595075318 lat/lon 52.9652777777778,-6.76833333333333</name>
</wpt>
<!--Waypoints 48-->
<wpt lat="52.9652777777778" lon="-6.76833333333333">
<name>MoonPlusEPlusI Centre 47 Bearing 45.3030249991463 Elevation 3.88502674626551 lat/lon 52.9652777777778,-6.76833333333333</name>
</wpt>
<!--Waypoints 49-->
<wpt lat="52.9652777777778" lon="-6.76833333333333">
<name>MoonPlusEPlusI Centre 48 Bearing 45.2902922138384 Elevation 3.87813898305739 lat/lon 52.9652777777778,-6.76833333333333</name>
</wpt>
<!--Waypoints 50-->
<wpt lat="52.9652777777778" lon="-6.76833333333333">
<name>MoonPlusEPlusI Centre 49 Bearing 45.2902922138384 Elevation 3.87813898305739 lat/lon 52.9652777777778,-6.76833333333333</name>
</wpt>
<!--Waypoints 51-->
<wpt lat="52.9652777777778" lon="-6.76833333333333">
<name>MoonPlusEPlusI Top 50 Bearing 44.5395727439189 Elevation 3.76121384676768 lat/lon 52.9652777777778,-6.76833333333333</name>
</wpt>
<!--Waypoints 52-->
<wpt lat="52.9675" lon="-6.77277777777778">
<name>MoonPlusEPlusI Top 51 Bearing 322.212066454112 Elevation 0.576146798717459 lat/lon 52.9675,-6.77277777777778</name>
</wpt>
<!--Waypoints 53-->
<wpt lat="52.9672222222222" lon="-6.77277777777778">
<name>MoonPlusEPlusI Centre 52 Bearing 321.667556864381 Elevation 0.550289429467111 lat/lon 52.9672222222222,-6.77277777777778</name>
</wpt>
<!--Waypoints 54-->
<wpt lat="52.9672222222222" lon="-6.77277777777778">
<name>MoonPlusEPlusI Bottom 53 Bearing 321.161337116791 Elevation 0.510830794168418 lat/lon 52.9672222222222,-6.77277777777778</name>
</wpt>
<!--Waypoints 55-->
<wpt lat="52.965" lon="-6.76805555555556">
<name>CrossQuarterSun1 Bottom 54 Bearing 68.4688788755182 Elevation 4.97038985565517 lat/lon 52.965,-6.76805555555556</name>
</wpt>
<!--Waypoints 56-->
<wpt lat="52.965" lon="-6.76805555555556">
<name>CrossQuarterSun1 Centre 55 Bearing 67.9876947592073 Elevation 4.9541779815962 lat/lon 52.965,-6.76805555555556</name>
</wpt>
<!--Waypoints 57-->
<wpt lat="52.965" lon="-6.76805555555556">
<name>CrossQuarterSun1 Top 56 Bearing 67.4874840767351 Elevation 4.92540174457233 lat/lon 52.965,-6.76805555555556</name>
</wpt>
<!--Waypoints 58-->
<wpt lat="53.1997222222222" lon="-7.43277777777778">
<name>CrossQuarterSun1 Top 57 Bearing 300.779991988634 Elevation -0.247698814139331 lat/lon 53.1997222222222,-7.43277777777778</name>
</wpt>
<!--Waypoints 59-->
<wpt lat="53.1141666666667" lon="-7.19722222222222">
<name>CrossQuarterSun1 Centre 58 Bearing 300.320759308395 Elevation -0.264987625057537 lat/lon 53.1141666666667,-7.19722222222222</name>
</wpt>
<!--Waypoints 60-->
<wpt lat="53.1155555555556" lon="-7.21">
<name>CrossQuarterSun1 Bottom 59 Bearing 299.81419682519 Elevation -0.255961350398106 lat/lon 53.1155555555556,-7.21</name>
</wpt>
<!--Waypoints 61-->
<wpt lat="52.9641666666667" lon="-6.76833333333333">
<name>CrossQuarterSun2 Bottom 60 Bearing 130.223384335784 Elevation 6.62714879050313 lat/lon 52.9641666666667,-6.76833333333333</name>
</wpt>
<!--Waypoints 62-->
<wpt lat="52.9641666666667" lon="-6.76833333333333">
<name>CrossQuarterSun2 Centre 61 Bearing 129.756779266951 Elevation 6.67531077817047 lat/lon 52.9641666666667,-6.76833333333333</name>
</wpt>
<!--Waypoints 63-->
<wpt lat="52.9641666666667" lon="-6.76833333333333">
<name>CrossQuarterSun2 Top 62 Bearing 129.303547170606 Elevation 6.72951271405952 lat/lon 52.9641666666667,-6.76833333333333</name>
</wpt>
<!--Waypoints 64-->
<wpt lat="52.8680555555556" lon="-7.0725">
<name>CrossQuarterSun2 Top 63 Bearing 242.270579821037 Elevation 0.0596159662453881 lat/lon 52.8680555555556,-7.0725</name>
</wpt>
<!--Waypoints 65-->
<wpt lat="52.8663888888889" lon="-7.07166666666667">
<name>CrossQuarterSun2 Centre 64 Bearing 241.790776445603 Elevation 0.0595598283171093 lat/lon 52.8663888888889,-7.07166666666667</name>
</wpt>
<!--Waypoints 66-->
<wpt lat="52.8030555555556" lon="-7.25555555555556">
<name>CrossQuarterSun2 Bottom 65 Bearing 241.337968312548 Elevation 0.0437568922006153 lat/lon 52.8030555555556,-7.25555555555556</name>
</wpt>
</gpx>
