<?xml version="1.0" encoding="UTF-8" standalone="no" ?>
<gpx>
<!--Centre Waypoint 53.0892701735 -6.6359968249-->
<wpt lat="53.0892701735" lon="-6.6359968249">
<name>randomcircle95 lat/lon 53.0892701735,-6.6359968249</name>
</wpt>
<!--Waypoints 1-->
<wpt lat="53.0547222222222" lon="-6.58861111111111">
<name>WinterSolsticeSun Bottom 0 Bearing 140.612620730472 Elevation 3.95844825490243 lat/lon 53.0547222222222,-6.58861111111111</name>
</wpt>
<!--Waypoints 2-->
<wpt lat="53.0544444444444" lon="-6.5875">
<name>WinterSolsticeSun Centre 1 Bearing 140.18218837164 Elevation 4.05050383546861 lat/lon 53.0544444444444,-6.5875</name>
</wpt>
<!--Waypoints 3-->
<wpt lat="53.0544444444444" lon="-6.58666666666667">
<name>WinterSolsticeSun Top 2 Bearing 139.646863785498 Elevation 4.09407854519436 lat/lon 53.0544444444444,-6.58666666666667</name>
</wpt>
<!--Waypoints 4-->
<wpt lat="53.08" lon="-6.65138888888889">
<name>WinterSolsticeSun Top 3 Bearing 224.375792536362 Elevation 2.20928282317272 lat/lon 53.08,-6.65138888888889</name>
</wpt>
<!--Waypoints 5-->
<wpt lat="53.08" lon="-6.65138888888889">
<name>WinterSolsticeSun Centre 4 Bearing 223.840068210223 Elevation 2.1862279383797 lat/lon 53.08,-6.65138888888889</name>
</wpt>
<!--Waypoints 6-->
<wpt lat="53.0797222222222" lon="-6.65111111111111">
<name>WinterSolsticeSun Bottom 5 Bearing 223.298528056922 Elevation 2.16402766877642 lat/lon 53.0797222222222,-6.65111111111111</name>
</wpt>
<!--Waypoints 7-->
<wpt lat="53.2191666666667" lon="-6.38722222222222">
<name>SummerSolsticeSun Bottom 6 Bearing 48.9095817272409 Elevation 0.942902632259389 lat/lon 53.2191666666667,-6.38722222222222</name>
</wpt>
<!--Waypoints 8-->
<wpt lat="53.2191666666667" lon="-6.38722222222222">
<name>SummerSolsticeSun Bottom 7 Bearing 48.8963163742444 Elevation 0.936256333238786 lat/lon 53.2191666666667,-6.38722222222222</name>
</wpt>
<!--Waypoints 9-->
<wpt lat="53.2188888888889" lon="-6.38777777777778">
<name>SummerSolsticeSun Bottom 8 Bearing 48.8963163742444 Elevation 0.936256333238786 lat/lon 53.2188888888889,-6.38777777777778</name>
</wpt>
<!--Waypoints 10-->
<wpt lat="53.22" lon="-6.39277777777778">
<name>SummerSolsticeSun Centre 9 Bearing 48.0815566919665 Elevation 0.801361109066993 lat/lon 53.22,-6.39277777777778</name>
</wpt>
<!--Waypoints 11-->
<wpt lat="53.2177777777778" lon="-6.40166666666667">
<name>SummerSolsticeSun Top 10 Bearing 47.4866485356304 Elevation 0.778165382981487 lat/lon 53.2177777777778,-6.40166666666667</name>
</wpt>
<!--Waypoints 12-->
<wpt lat="53.0897222222222" lon="-6.63666666666667">
<name>SummerSolsticeSun Top 11 Bearing 312.440294851598 Elevation 0.813615886679457 lat/lon 53.0897222222222,-6.63666666666667</name>
</wpt>
<!--Waypoints 13-->
<wpt lat="53.0897222222222" lon="-6.63666666666667">
<name>SummerSolsticeSun Centre 12 Bearing 311.984867782818 Elevation 0.768887174188034 lat/lon 53.0897222222222,-6.63666666666667</name>
</wpt>
<!--Waypoints 14-->
<wpt lat="53.0897222222222" lon="-6.63666666666667">
<name>SummerSolsticeSun Bottom 13 Bearing 311.528625416208 Elevation 0.725746842893058 lat/lon 53.0897222222222,-6.63666666666667</name>
</wpt>
<!--Waypoints 15-->
<wpt lat="53.0869444444444" lon="-6.57361111111111">
<name>EquinoxSun Bottom 14 Bearing 93.7473905808982 Elevation 2.72721775542082 lat/lon 53.0869444444444,-6.57361111111111</name>
</wpt>
<!--Waypoints 16-->
<wpt lat="53.0872222222222" lon="-6.57416666666667">
<name>EquinoxSun Centre 15 Bearing 93.3403451542422 Elevation 2.7543115587609 lat/lon 53.0872222222222,-6.57416666666667</name>
</wpt>
<!--Waypoints 17-->
<wpt lat="53.0875" lon="-6.57416666666667">
<name>EquinoxSun Top 16 Bearing 92.9266075381282 Elevation 2.77657108625211 lat/lon 53.0875,-6.57416666666667</name>
</wpt>
<!--Waypoints 18-->
<wpt lat="53.0888888888889" lon="-6.65444444444444">
<name>EquinoxSun Top 17 Bearing 267.120112019982 Elevation 2.74346679438714 lat/lon 53.0888888888889,-6.65444444444444</name>
</wpt>
<!--Waypoints 19-->
<wpt lat="53.0888888888889" lon="-6.655">
<name>EquinoxSun Centre 18 Bearing 266.699709117019 Elevation 2.72596025413089 lat/lon 53.0888888888889,-6.655</name>
</wpt>
<!--Waypoints 20-->
<wpt lat="53.0886111111111" lon="-6.65472222222222">
<name>EquinoxSun Bottom 19 Bearing 266.279318003713 Elevation 2.70833482528522 lat/lon 53.0886111111111,-6.65472222222222</name>
</wpt>
<!--Waypoints 21-->
<wpt lat="53.0288888888889" lon="-6.58">
<name>MoonMinusEMinusI Bottom 20 Bearing 150.935272645517 Elevation 1.7955510967001 lat/lon 53.0288888888889,-6.58</name>
</wpt>
<!--Waypoints 22-->
<wpt lat="53.0286111111111" lon="-6.57861111111111">
<name>MoonMinusEMinusI Centre 21 Bearing 150.464259804919 Elevation 1.89385125394481 lat/lon 53.0286111111111,-6.57861111111111</name>
</wpt>
<!--Waypoints 23-->
<wpt lat="53.0283333333333" lon="-6.5775">
<name>MoonMinusEMinusI Top 22 Bearing 149.998647922971 Elevation 1.99261554887947 lat/lon 53.0283333333333,-6.5775</name>
</wpt>
<!--Waypoints 24-->
<wpt lat="53.0713888888889" lon="-6.65388888888889">
<name>MoonMinusEMinusI Top 23 Bearing 210.686607507919 Elevation 1.75926130638668 lat/lon 53.0713888888889,-6.65388888888889</name>
</wpt>
<!--Waypoints 25-->
<wpt lat="53.0763888888889" lon="-6.64861111111111">
<name>MoonMinusEMinusI Centre 24 Bearing 210.138249357528 Elevation 1.69224757935557 lat/lon 53.0763888888889,-6.64861111111111</name>
</wpt>
<!--Waypoints 26-->
<wpt lat="53.0763888888889" lon="-6.64861111111111">
<name>MoonMinusEMinusI Bottom 25 Bearing 209.468430755562 Elevation 1.66307131552988 lat/lon 53.0763888888889,-6.64861111111111</name>
</wpt>
<!--Waypoints 27-->
<wpt lat="53.0686111111111" lon="-6.59222222222222">
<name>MoonMinusEPlusI Bottom 26 Bearing 128.236328163246 Elevation 2.47707583448418 lat/lon 53.0686111111111,-6.59222222222222</name>
</wpt>
<!--Waypoints 28-->
<wpt lat="53.0691666666667" lon="-6.59194444444444">
<name>MoonMinusEPlusI Centre 27 Bearing 127.580458061071 Elevation 2.4019265662111 lat/lon 53.0691666666667,-6.59194444444444</name>
</wpt>
<!--Waypoints 29-->
<wpt lat="53.0694444444444" lon="-6.59194444444444">
<name>MoonMinusEPlusI Top 28 Bearing 126.93099388807 Elevation 2.32764289987189 lat/lon 53.0694444444444,-6.59194444444444</name>
</wpt>
<!--Waypoints 30-->
<wpt lat="53.0830555555556" lon="-6.65">
<name>MoonMinusEPlusI Top 29 Bearing 232.946198263979 Elevation 2.39510845920533 lat/lon 53.0830555555556,-6.65</name>
</wpt>
<!--Waypoints 31-->
<wpt lat="53.0830555555556" lon="-6.65">
<name>MoonMinusEPlusI Top 30 Bearing 232.946198263979 Elevation 2.39510845920533 lat/lon 53.0830555555556,-6.65</name>
</wpt>
<!--Waypoints 32-->
<wpt lat="53.0830555555556" lon="-6.65">
<name>MoonMinusEPlusI Top 31 Bearing 232.932548225886 Elevation 2.40260573373817 lat/lon 53.0830555555556,-6.65</name>
</wpt>
<!--Waypoints 33-->
<wpt lat="53.0830555555556" lon="-6.65">
<name>MoonMinusEPlusI Centre 32 Bearing 232.419541938929 Elevation 2.40192656621109 lat/lon 53.0830555555556,-6.65</name>
</wpt>
<!--Waypoints 34-->
<wpt lat="53.0827777777778" lon="-6.65">
<name>MoonMinusEPlusI Bottom 33 Bearing 231.920788355829 Elevation 2.39203755920539 lat/lon 53.0827777777778,-6.65</name>
</wpt>
<!--Waypoints 35-->
<wpt lat="53.11" lon="-6.57194444444444">
<name>MoonPlusEMinusI Bottom 34 Bearing 61.775792695518 Elevation 1.86061455445912 lat/lon 53.11,-6.57194444444444</name>
</wpt>
<!--Waypoints 36-->
<wpt lat="53.1105555555556" lon="-6.57166666666667">
<name>MoonPlusEMinusI Centre 35 Bearing 61.2312077299706 Elevation 1.81148467476175 lat/lon 53.1105555555556,-6.57166666666667</name>
</wpt>
<!--Waypoints 37-->
<wpt lat="53.1111111111111" lon="-6.57111111111111">
<name>MoonPlusEMinusI Top 36 Bearing 60.7199339374013 Elevation 1.78412051481653 lat/lon 53.1111111111111,-6.57111111111111</name>
</wpt>
<!--Waypoints 38-->
<wpt lat="53.0997222222222" lon="-6.665">
<name>MoonPlusEMinusI Top 37 Bearing 300.536125931145 Elevation 1.03495931320414 lat/lon 53.0997222222222,-6.665</name>
</wpt>
<!--Waypoints 39-->
<wpt lat="53.0994444444444" lon="-6.66527777777778">
<name>MoonPlusEMinusI Centre 38 Bearing 300.031477002053 Elevation 1.05375051816913 lat/lon 53.0994444444444,-6.66527777777778</name>
</wpt>
<!--Waypoints 40-->
<wpt lat="53.0991666666667" lon="-6.665">
<name>MoonPlusEMinusI Bottom 39 Bearing 299.532908139995 Elevation 1.07006724397206 lat/lon 53.0991666666667,-6.665</name>
</wpt>
<!--Waypoints 41-->
<wpt lat="53.2522222222222" lon="-6.42">
<name>MoonPlusEPlusI Bottom 40 Bearing 38.4245092223044 Elevation 0.425678012456262 lat/lon 53.2522222222222,-6.42</name>
</wpt>
<!--Waypoints 42-->
<wpt lat="53.2530555555556" lon="-6.42444444444444">
<name>MoonPlusEPlusI Centre 41 Bearing 37.687483848607 Elevation 0.375942871200644 lat/lon 53.2530555555556,-6.42444444444444</name>
</wpt>
<!--Waypoints 43-->
<wpt lat="53.2527777777778" lon="-6.42944444444444">
<name>MoonPlusEPlusI Top 42 Bearing 37.0706185556922 Elevation 0.377027396018898 lat/lon 53.2527777777778,-6.42944444444444</name>
</wpt>
<!--Waypoints 44-->
<wpt lat="53.09" lon="-6.63666666666667">
<name>MoonPlusEPlusI Top 43 Bearing 321.947422700956 Elevation 0.768094477151347 lat/lon 53.09,-6.63666666666667</name>
</wpt>
<!--Waypoints 45-->
<wpt lat="53.09" lon="-6.63666666666667">
<name>MoonPlusEPlusI Centre 44 Bearing 321.363366188214 Elevation 0.758882542905461 lat/lon 53.09,-6.63666666666667</name>
</wpt>
<!--Waypoints 46-->
<wpt lat="53.09" lon="-6.63666666666667">
<name>MoonPlusEPlusI Bottom 45 Bearing 320.797810326295 Elevation 0.744384502659052 lat/lon 53.09,-6.63666666666667</name>
</wpt>
<!--Waypoints 47-->
<wpt lat="53.1083333333333" lon="-6.57194444444444">
<name>CrossQuarterSun1 Bottom 46 Bearing 63.8010199874745 Elevation 1.89450216763327 lat/lon 53.1083333333333,-6.57194444444444</name>
</wpt>
<!--Waypoints 48-->
<wpt lat="53.1086111111111" lon="-6.57222222222222">
<name>CrossQuarterSun1 Centre 47 Bearing 63.3144623507071 Elevation 1.88720424823024 lat/lon 53.1086111111111,-6.57222222222222</name>
</wpt>
<!--Waypoints 49-->
<wpt lat="53.1091666666667" lon="-6.57166666666667">
<name>CrossQuarterSun1 Top 48 Bearing 62.8481705408994 Elevation 1.89339818291782 lat/lon 53.1091666666667,-6.57166666666667</name>
</wpt>
<!--Waypoints 50-->
<wpt lat="53.0947222222222" lon="-6.6525">
<name>CrossQuarterSun1 Top 49 Bearing 298.468532555073 Elevation 1.09427829172824 lat/lon 53.0947222222222,-6.6525</name>
</wpt>
<!--Waypoints 51-->
<wpt lat="53.0947222222222" lon="-6.6525">
<name>CrossQuarterSun1 Centre 50 Bearing 297.929482538682 Elevation 1.12824642432797 lat/lon 53.0947222222222,-6.6525</name>
</wpt>
<!--Waypoints 52-->
<wpt lat="53.0947222222222" lon="-6.65305555555556">
<name>CrossQuarterSun1 Bottom 51 Bearing 297.370071024856 Elevation 1.17566303996012 lat/lon 53.0947222222222,-6.65305555555556</name>
</wpt>
<!--Waypoints 53-->
<wpt lat="53.0188888888889" lon="-6.45027777777778">
<name>CrossQuarterSun2 Bottom 52 Bearing 122.253544232569 Elevation 2.03564032629435 lat/lon 53.0188888888889,-6.45027777777778</name>
</wpt>
<!--Waypoints 54-->
<wpt lat="53.0205555555556" lon="-6.45111111111111">
<name>CrossQuarterSun2 Centre 53 Bearing 121.693287261142 Elevation 2.0008171581409 lat/lon 53.0205555555556,-6.45111111111111</name>
</wpt>
<!--Waypoints 55-->
<wpt lat="53.0213888888889" lon="-6.44944444444444">
<name>CrossQuarterSun2 Top 54 Bearing 121.199953309273 Elevation 2.00382583529561 lat/lon 53.0213888888889,-6.44944444444444</name>
</wpt>
<!--Waypoints 56-->
<wpt lat="53.0833333333333" lon="-6.65194444444444">
<name>CrossQuarterSun2 Top 55 Bearing 238.050575784292 Elevation 2.44539255162727 lat/lon 53.0833333333333,-6.65194444444444</name>
</wpt>
<!--Waypoints 57-->
<wpt lat="53.0833333333333" lon="-6.65194444444444">
<name>CrossQuarterSun2 Centre 56 Bearing 237.590949310734 Elevation 2.42015061781532 lat/lon 53.0833333333333,-6.65194444444444</name>
</wpt>
<!--Waypoints 58-->
<wpt lat="53.0833333333333" lon="-6.65194444444444">
<name>CrossQuarterSun2 Bottom 57 Bearing 237.131845580196 Elevation 2.39367388519731 lat/lon 53.0833333333333,-6.65194444444444</name>
</wpt>
</gpx>
