<?xml version="1.0" encoding="UTF-8" standalone="no" ?>
<gpx>
<!--Centre Waypoint 53.23295248 -6.22463273-->
<wpt lat="53.23295248" lon="-6.22463273">
<name>ballyedmonduff-du025-046---- lat/lon 53.23295248,-6.22463273</name>
</wpt>
<!--Waypoints 1-->
<wpt lat="53.2280555555556" lon="-6.21555555555556">
<name>WinterSolsticeSun Bottom 0 Bearing 132.140579259976 Elevation -0.0659123299349274 lat/lon 53.2280555555556,-6.21555555555556</name>
</wpt>
<!--Waypoints 2-->
<wpt lat="53.2283333333333" lon="-6.21527777777778">
<name>WinterSolsticeSun Centre 1 Bearing 131.505865388145 Elevation -0.107212461219796 lat/lon 53.2283333333333,-6.21527777777778</name>
</wpt>
<!--Waypoints 3-->
<wpt lat="53.2283333333333" lon="-6.21527777777778">
<name>WinterSolsticeSun Top 2 Bearing 130.896857604279 Elevation -0.138770399482965 lat/lon 53.2283333333333,-6.21527777777778</name>
</wpt>
<!--Waypoints 4-->
<wpt lat="53.2319444444444" lon="-6.22583333333333">
<name>WinterSolsticeSun Top 3 Bearing 208.870539390584 Elevation 8.4603838186557 lat/lon 53.2319444444444,-6.22583333333333</name>
</wpt>
<!--Waypoints 5-->
<wpt lat="53.2319444444444" lon="-6.22555555555556">
<name>WinterSolsticeSun Centre 4 Bearing 208.135055364811 Elevation 8.4193378869698 lat/lon 53.2319444444444,-6.22555555555556</name>
</wpt>
<!--Waypoints 6-->
<wpt lat="53.2319444444444" lon="-6.22555555555556">
<name>WinterSolsticeSun Bottom 5 Bearing 207.364722449372 Elevation 8.38409491842698 lat/lon 53.2319444444444,-6.22555555555556</name>
</wpt>
<!--Waypoints 7-->
<wpt lat="53.2322222222222" lon="-6.22527777777778">
<name>WinterSolsticeSun Bottom 6 Bearing 207.137682904844 Elevation 8.4541036870049 lat/lon 53.2322222222222,-6.22527777777778</name>
</wpt>
<!--Waypoints 8-->
<wpt lat="53.2322222222222" lon="-6.22527777777778">
<name>WinterSolsticeSun Bottom 7 Bearing 207.123027831392 Elevation 8.45860225379949 lat/lon 53.2322222222222,-6.22527777777778</name>
</wpt>
<!--Waypoints 9-->
<wpt lat="53.2322222222222" lon="-6.22527777777778">
<name>WinterSolsticeSun Bottom 8 Bearing 207.123027831392 Elevation 8.45860225379949 lat/lon 53.2322222222222,-6.22527777777778</name>
</wpt>
<!--Waypoints 10-->
<wpt lat="53.2322222222222" lon="-6.22527777777778">
<name>WinterSolsticeSun Centre 9 Bearing 206.025308177348 Elevation 9.06416473715062 lat/lon 53.2322222222222,-6.22527777777778</name>
</wpt>
<!--Waypoints 11-->
<wpt lat="53.2322222222222" lon="-6.22527777777778">
<name>WinterSolsticeSun Centre 10 Bearing 206.010541683682 Elevation 9.06849742900165 lat/lon 53.2322222222222,-6.22527777777778</name>
</wpt>
<!--Waypoints 12-->
<wpt lat="53.2322222222222" lon="-6.22527777777778">
<name>WinterSolsticeSun Centre 11 Bearing 206.010541683682 Elevation 9.06849742900165 lat/lon 53.2322222222222,-6.22527777777778</name>
</wpt>
<!--Waypoints 13-->
<wpt lat="53.2325" lon="-6.225">
<name>WinterSolsticeSun Centre 12 Bearing 205.840663845166 Elevation 9.11816134877731 lat/lon 53.2325,-6.225</name>
</wpt>
<!--Waypoints 14-->
<wpt lat="53.2325" lon="-6.225">
<name>WinterSolsticeSun Bottom 13 Bearing 205.232523457392 Elevation 9.01816582328865 lat/lon 53.2325,-6.225</name>
</wpt>
<!--Waypoints 15-->
<wpt lat="53.6759567328595" lon="-5.45918461812527">
<name>SummerSolsticeSun Bottom 14 Bearing 45.5165953658957 Elevation -0.547859043431631 lat/lon 53.6759567328595,-5.45918461812527</name>
</wpt>
<!--Waypoints 16-->
<wpt lat="53.6805321216159" lon="-5.46668780300111">
<name>SummerSolsticeSun Centre 15 Bearing 44.9403494263961 Elevation -0.548783920027084 lat/lon 53.6805321216159,-5.46668780300111</name>
</wpt>
<!--Waypoints 17-->
<wpt lat="53.6851275240318" lon="-5.47438021412252">
<name>SummerSolsticeSun Top 16 Bearing 44.3650415955503 Elevation -0.547254157790864 lat/lon 53.6851275240318,-5.47438021412252</name>
</wpt>
<!--Waypoints 18-->
<wpt lat="53.2358333333333" lon="-6.23277777777778">
<name>SummerSolsticeSun Top 17 Bearing 298.729923097696 Elevation 9.18415513166793 lat/lon 53.2358333333333,-6.23277777777778</name>
</wpt>
<!--Waypoints 19-->
<wpt lat="53.2358333333333" lon="-6.23277777777778">
<name>SummerSolsticeSun Top 18 Bearing 298.729923097696 Elevation 9.18415513166793 lat/lon 53.2358333333333,-6.23277777777778</name>
</wpt>
<!--Waypoints 20-->
<wpt lat="53.2358333333333" lon="-6.23277777777778">
<name>SummerSolsticeSun Top 19 Bearing 298.717339258282 Elevation 9.1928189493322 lat/lon 53.2358333333333,-6.23277777777778</name>
</wpt>
<!--Waypoints 21-->
<wpt lat="53.2358333333333" lon="-6.23305555555556">
<name>SummerSolsticeSun Centre 20 Bearing 298.183952630141 Elevation 9.23762094907022 lat/lon 53.2358333333333,-6.23305555555556</name>
</wpt>
<!--Waypoints 22-->
<wpt lat="53.2355555555556" lon="-6.23277777777778">
<name>SummerSolsticeSun Bottom 21 Bearing 297.662413567663 Elevation 9.27529378531337 lat/lon 53.2355555555556,-6.23277777777778</name>
</wpt>
<!--Waypoints 23-->
<wpt lat="53.2416383612947" lon="-5.16273024727957">
<name>EquinoxSun Bottom 22 Bearing 88.8043294305089 Elevation -0.546499041366134 lat/lon 53.2416383612947,-5.16273024727957</name>
</wpt>
<!--Waypoints 24-->
<wpt lat="53.2465375804066" lon="-5.16281290799858">
<name>EquinoxSun Centre 23 Bearing 88.3575436322058 Elevation -0.547128212401178 lat/lon 53.2465375804066,-5.16281290799858</name>
</wpt>
<!--Waypoints 25-->
<wpt lat="53.2515286937691" lon="-5.16296205983169">
<name>EquinoxSun Top 24 Bearing 87.9107575986764 Elevation -0.547694154070846 lat/lon 53.2515286937691,-5.16296205983169</name>
</wpt>
<!--Waypoints 26-->
<wpt lat="53.2327777777778" lon="-6.22666666666667">
<name>EquinoxSun Top 25 Bearing 257.845012538281 Elevation 9.3625171930327 lat/lon 53.2327777777778,-6.22666666666667</name>
</wpt>
<!--Waypoints 27-->
<wpt lat="53.2327777777778" lon="-6.22666666666667">
<name>EquinoxSun Centre 26 Bearing 257.351353247755 Elevation 9.38464355316142 lat/lon 53.2327777777778,-6.22666666666667</name>
</wpt>
<!--Waypoints 28-->
<wpt lat="53.2327777777778" lon="-6.22666666666667">
<name>EquinoxSun Bottom 27 Bearing 256.850770206824 Elevation 9.41091137896228 lat/lon 53.2327777777778,-6.22666666666667</name>
</wpt>
<!--Waypoints 29-->
<wpt lat="53.2272222222222" lon="-6.21777777777778">
<name>MoonMinusEMinusI Bottom 28 Bearing 145.401190592588 Elevation -0.189808204719242 lat/lon 53.2272222222222,-6.21777777777778</name>
</wpt>
<!--Waypoints 30-->
<wpt lat="53.2272222222222" lon="-6.21777777777778">
<name>MoonMinusEMinusI Centre 29 Bearing 144.878301710645 Elevation -0.141298026185909 lat/lon 53.2272222222222,-6.21777777777778</name>
</wpt>
<!--Waypoints 31-->
<wpt lat="53.2275" lon="-6.21777777777778">
<name>MoonMinusEMinusI Top 30 Bearing 144.387566034771 Elevation -0.0830524088795565 lat/lon 53.2275,-6.21777777777778</name>
</wpt>
<!--Waypoints 32-->
<wpt lat="53.2322222222222" lon="-6.225">
<name>MoonMinusEMinusI Top 31 Bearing 187.283228573557 Elevation 6.77521356540515 lat/lon 53.2322222222222,-6.225</name>
</wpt>
<!--Waypoints 33-->
<wpt lat="53.2325" lon="-6.22472222222222">
<name>MoonMinusEMinusI Centre 32 Bearing 186.141127162922 Elevation 6.60872004681584 lat/lon 53.2325,-6.22472222222222</name>
</wpt>
<!--Waypoints 34-->
<wpt lat="53.2325" lon="-6.22472222222222">
<name>MoonMinusEMinusI Bottom 33 Bearing 185.18733448607 Elevation 6.41633405878727 lat/lon 53.2325,-6.22472222222222</name>
</wpt>
<!--Waypoints 35-->
<wpt lat="53.2286111111111" lon="-6.21333333333333">
<name>MoonMinusEPlusI Bottom 34 Bearing 123.315188976395 Elevation -0.213840948573985 lat/lon 53.2286111111111,-6.21333333333333</name>
</wpt>
<!--Waypoints 36-->
<wpt lat="53.2286111111111" lon="-6.21333333333333">
<name>MoonMinusEPlusI Centre 35 Bearing 122.84380330532 Elevation -0.205115481205202 lat/lon 53.2286111111111,-6.21333333333333</name>
</wpt>
<!--Waypoints 37-->
<wpt lat="53.2286111111111" lon="-6.21305555555556">
<name>MoonMinusEPlusI Top 36 Bearing 122.371879261965 Elevation -0.197582646226291 lat/lon 53.2286111111111,-6.21305555555556</name>
</wpt>
<!--Waypoints 38-->
<wpt lat="53.2325" lon="-6.22527777777778">
<name>MoonMinusEPlusI Top 37 Bearing 218.778241891044 Elevation 9.28593289069582 lat/lon 53.2325,-6.22527777777778</name>
</wpt>
<!--Waypoints 39-->
<wpt lat="53.2325" lon="-6.22527777777778">
<name>MoonMinusEPlusI Centre 38 Bearing 218.210409404664 Elevation 9.24376605999675 lat/lon 53.2325,-6.22527777777778</name>
</wpt>
<!--Waypoints 40-->
<wpt lat="53.2325" lon="-6.22527777777778">
<name>MoonMinusEPlusI Bottom 39 Bearing 217.65832798126 Elevation 9.19265040623975 lat/lon 53.2325,-6.22527777777778</name>
</wpt>
<!--Waypoints 41-->
<wpt lat="53.572174020822" lon="-5.32303407100166">
<name>MoonPlusEMinusI Bottom 40 Bearing 57.3941281932268 Elevation -0.549922781784713 lat/lon 53.572174020822,-5.32303407100166</name>
</wpt>
<!--Waypoints 42-->
<wpt lat="53.5767142067191" lon="-5.32783733910688">
<name>MoonPlusEMinusI Centre 41 Bearing 56.9088376450675 Elevation -0.548639240355229 lat/lon 53.5767142067191,-5.32783733910688</name>
</wpt>
<!--Waypoints 43-->
<wpt lat="53.581307619207" lon="-5.33279048478137">
<name>MoonPlusEMinusI Top 42 Bearing 56.4173998103556 Elevation -0.549575962435515 lat/lon 53.581307619207,-5.33279048478137</name>
</wpt>
<!--Waypoints 44-->
<wpt lat="53.2358333333333" lon="-6.23861111111111">
<name>MoonPlusEMinusI Top 43 Bearing 287.762281767319 Elevation 9.77969071083953 lat/lon 53.2358333333333,-6.23861111111111</name>
</wpt>
<!--Waypoints 45-->
<wpt lat="53.2358333333333" lon="-6.23888888888889">
<name>MoonPlusEMinusI Centre 44 Bearing 287.315586336124 Elevation 9.787220452801 lat/lon 53.2358333333333,-6.23888888888889</name>
</wpt>
<!--Waypoints 46-->
<wpt lat="53.2352777777778" lon="-6.23611111111111">
<name>MoonPlusEMinusI Bottom 45 Bearing 286.868441040984 Elevation 9.79537328830809 lat/lon 53.2352777777778,-6.23611111111111</name>
</wpt>
<!--Waypoints 47-->
<wpt lat="53.7482498776916" lon="-5.59918376969662">
<name>MoonPlusEPlusI Bottom 46 Bearing 35.5923476278831 Elevation -0.549661999617956 lat/lon 53.7482498776916,-5.59918376969662</name>
</wpt>
<!--Waypoints 48-->
<wpt lat="53.752463343674" lon="-5.60907942760682">
<name>MoonPlusEPlusI Centre 47 Bearing 34.9409866511529 Elevation -0.548226726807689 lat/lon 53.752463343674,-5.60907942760682</name>
</wpt>
<!--Waypoints 49-->
<wpt lat="53.7567147529421" lon="-5.61931416483691">
<name>MoonPlusEPlusI Top 48 Bearing 34.2776396817911 Elevation -0.547823863633152 lat/lon 53.7567147529421,-5.61931416483691</name>
</wpt>
<!--Waypoints 50-->
<wpt lat="53.2388888888889" lon="-6.23638888888889">
<name>MoonPlusEPlusI Top 49 Bearing 309.871808295803 Elevation 7.11923161781752 lat/lon 53.2388888888889,-6.23638888888889</name>
</wpt>
<!--Waypoints 51-->
<wpt lat="53.2388888888889" lon="-6.23638888888889">
<name>MoonPlusEPlusI Centre 50 Bearing 309.228849157855 Elevation 7.2099024547225 lat/lon 53.2388888888889,-6.23638888888889</name>
</wpt>
<!--Waypoints 52-->
<wpt lat="53.2380555555556" lon="-6.235">
<name>MoonPlusEPlusI Bottom 51 Bearing 308.267254777878 Elevation 7.50099158793095 lat/lon 53.2380555555556,-6.235</name>
</wpt>
<!--Waypoints 53-->
<wpt lat="53.2380555555556" lon="-6.235">
<name>MoonPlusEPlusI Bottom 52 Bearing 308.267254777878 Elevation 7.50099158793095 lat/lon 53.2380555555556,-6.235</name>
</wpt>
<!--Waypoints 54-->
<wpt lat="53.2380555555556" lon="-6.235">
<name>MoonPlusEPlusI Bottom 53 Bearing 308.254807659189 Elevation 7.50873687999812 lat/lon 53.2380555555556,-6.235</name>
</wpt>
<!--Waypoints 55-->
<wpt lat="53.5528140468106" lon="-5.3035504769054">
<name>CrossQuarterSun1 Bottom 54 Bearing 59.4299869410799 Elevation -0.548182495123146 lat/lon 53.5528140468106,-5.3035504769054</name>
</wpt>
<!--Waypoints 56-->
<wpt lat="53.5576128689607" lon="-5.30823243954219">
<name>CrossQuarterSun1 Centre 55 Bearing 58.9300213495002 Elevation -0.549928165674826 lat/lon 53.5576128689607,-5.30823243954219</name>
</wpt>
<!--Waypoints 57-->
<wpt lat="53.5623076859094" lon="-5.31290597866934">
<name>CrossQuarterSun1 Top 56 Bearing 58.4372902904976 Elevation -0.546761741838687 lat/lon 53.5623076859094,-5.31290597866934</name>
</wpt>
<!--Waypoints 58-->
<wpt lat="53.235" lon="-6.23666666666667">
<name>CrossQuarterSun1 Top 57 Bearing 285.820401295509 Elevation 9.80872269971451 lat/lon 53.235,-6.23666666666667</name>
</wpt>
<!--Waypoints 59-->
<wpt lat="53.235" lon="-6.23694444444444">
<name>CrossQuarterSun1 Centre 58 Bearing 285.367133174278 Elevation 9.81217219581374 lat/lon 53.235,-6.23694444444444</name>
</wpt>
<!--Waypoints 60-->
<wpt lat="53.2352777777778" lon="-6.23777777777778">
<name>CrossQuarterSun1 Bottom 59 Bearing 284.945728324778 Elevation 9.79229004341867 lat/lon 53.2352777777778,-6.23777777777778</name>
</wpt>
<!--Waypoints 61-->
<wpt lat="53.2291666666667" lon="-6.21222222222222">
<name>CrossQuarterSun2 Bottom 60 Bearing 118.201301083341 Elevation -0.31405870696549 lat/lon 53.2291666666667,-6.21222222222222</name>
</wpt>
<!--Waypoints 62-->
<wpt lat="53.2291666666667" lon="-6.21222222222222">
<name>CrossQuarterSun2 Centre 61 Bearing 117.715286909185 Elevation -0.316150205164068 lat/lon 53.2291666666667,-6.21222222222222</name>
</wpt>
<!--Waypoints 63-->
<wpt lat="53.2291666666667" lon="-6.21222222222222">
<name>CrossQuarterSun2 Top 62 Bearing 117.235435979981 Elevation -0.315639534967851 lat/lon 53.2291666666667,-6.21222222222222</name>
</wpt>
<!--Waypoints 64-->
<wpt lat="53.2325" lon="-6.22555555555556">
<name>CrossQuarterSun2 Top 63 Bearing 225.189783070618 Elevation 9.36981130351614 lat/lon 53.2325,-6.22555555555556</name>
</wpt>
<!--Waypoints 65-->
<wpt lat="53.2325" lon="-6.22555555555556">
<name>CrossQuarterSun2 Centre 64 Bearing 224.562826946376 Elevation 9.37677502012696 lat/lon 53.2325,-6.22555555555556</name>
</wpt>
<!--Waypoints 66-->
<wpt lat="53.2325" lon="-6.22555555555556">
<name>CrossQuarterSun2 Bottom 65 Bearing 223.929293017257 Elevation 9.38392289969888 lat/lon 53.2325,-6.22555555555556</name>
</wpt>
</gpx>
