<?xml version="1.0" encoding="UTF-8" standalone="no" ?>
<gpx>
<!--Centre Waypoint 53.1812192634 -6.7291129789-->
<wpt lat="53.1812192634" lon="-6.7291129789">
<name>randomcircle51 lat/lon 53.1812192634,-6.7291129789</name>
</wpt>
<!--Waypoints 1-->
<wpt lat="53.0166666666667" lon="-6.45277777777778">
<name>WinterSolsticeSun Bottom 0 Bearing 134.671242919043 Elevation 1.14393214208896 lat/lon 53.0166666666667,-6.45277777777778</name>
</wpt>
<!--Waypoints 2-->
<wpt lat="53.0188888888889" lon="-6.44972222222222">
<name>WinterSolsticeSun Centre 1 Bearing 133.981868106528 Elevation 1.08637063528602 lat/lon 53.0188888888889,-6.44972222222222</name>
</wpt>
<!--Waypoints 3-->
<wpt lat="53.0186111111111" lon="-6.44916666666667">
<name>WinterSolsticeSun Centre 2 Bearing 133.961729392127 Elevation 1.07678912890015 lat/lon 53.0186111111111,-6.44916666666667</name>
</wpt>
<!--Waypoints 4-->
<wpt lat="53.0197222222222" lon="-6.45083333333333">
<name>WinterSolsticeSun Centre 3 Bearing 133.961729392127 Elevation 1.07678912890015 lat/lon 53.0197222222222,-6.45083333333333</name>
</wpt>
<!--Waypoints 5-->
<wpt lat="53.0216666666667" lon="-6.44861111111111">
<name>WinterSolsticeSun Top 4 Bearing 133.378907096937 Elevation 1.06719906004343 lat/lon 53.0216666666667,-6.44861111111111</name>
</wpt>
<!--Waypoints 6-->
<wpt lat="52.9455555555556" lon="-7.17305555555556">
<name>WinterSolsticeSun Top 5 Bearing 228.704412317587 Elevation 0.0768733293458653 lat/lon 52.9455555555556,-7.17305555555556</name>
</wpt>
<!--Waypoints 7-->
<wpt lat="52.9402777777778" lon="-7.17444444444444">
<name>WinterSolsticeSun Centre 6 Bearing 228.161773048169 Elevation 0.0762153766288861 lat/lon 52.9402777777778,-7.17444444444444</name>
</wpt>
<!--Waypoints 8-->
<wpt lat="52.9383333333333" lon="-7.17027777777778">
<name>WinterSolsticeSun Bottom 7 Bearing 227.66648816581 Elevation 0.0520170840824964 lat/lon 52.9383333333333,-7.17027777777778</name>
</wpt>
<!--Waypoints 9-->
<wpt lat="53.29" lon="-6.53527777777778">
<name>SummerSolsticeSun Bottom 8 Bearing 46.7955164547042 Elevation -0.00805726860490773 lat/lon 53.29,-6.53527777777778</name>
</wpt>
<!--Waypoints 10-->
<wpt lat="53.2913888888889" lon="-6.53666666666667">
<name>SummerSolsticeSun Centre 9 Bearing 46.2395477057764 Elevation -0.00580104766905121 lat/lon 53.2913888888889,-6.53666666666667</name>
</wpt>
<!--Waypoints 11-->
<wpt lat="53.2861111111111" lon="-6.55083333333333">
<name>SummerSolsticeSun Top 10 Bearing 45.4429261434836 Elevation -0.107859913231904 lat/lon 53.2861111111111,-6.55083333333333</name>
</wpt>
<!--Waypoints 12-->
<wpt lat="53.4730555555556" lon="-7.22222222222222">
<name>SummerSolsticeSun Top 11 Bearing 314.919951673988 Elevation -0.266566069071875 lat/lon 53.4730555555556,-7.22222222222222</name>
</wpt>
<!--Waypoints 13-->
<wpt lat="53.5" lon="-7.27944444444444">
<name>SummerSolsticeSun Centre 12 Bearing 314.34470836177 Elevation -0.26464215504395 lat/lon 53.5,-7.27944444444444</name>
</wpt>
<!--Waypoints 14-->
<wpt lat="53.4886111111111" lon="-7.27">
<name>SummerSolsticeSun Bottom 13 Bearing 313.781997462129 Elevation -0.266323174823026 lat/lon 53.4886111111111,-7.27</name>
</wpt>
<!--Waypoints 15-->
<wpt lat="53.175" lon="-6.33083333333333">
<name>EquinoxSun Bottom 14 Bearing 91.3340118904572 Elevation 1.05939599506551 lat/lon 53.175,-6.33083333333333</name>
</wpt>
<!--Waypoints 16-->
<wpt lat="53.1766666666667" lon="-6.33277777777778">
<name>EquinoxSun Centre 15 Bearing 90.9807090115865 Elevation 1.1204942673363 lat/lon 53.1766666666667,-6.33277777777778</name>
</wpt>
<!--Waypoints 17-->
<wpt lat="53.1780555555556" lon="-6.33166666666667">
<name>EquinoxSun Top 16 Bearing 90.6073796599055 Elevation 1.16839679648383 lat/lon 53.1780555555556,-6.33166666666667</name>
</wpt>
<!--Waypoints 18-->
<wpt lat="53.1841666666667" lon="-6.94277777777778">
<name>EquinoxSun Top 17 Bearing 271.354029392008 Elevation -0.0916090234325818 lat/lon 53.1841666666667,-6.94277777777778</name>
</wpt>
<!--Waypoints 19-->
<wpt lat="53.1833333333333" lon="-6.95055555555556">
<name>EquinoxSun Centre 18 Bearing 270.880627330636 Elevation -0.0740703238281727 lat/lon 53.1833333333333,-6.95055555555556</name>
</wpt>
<!--Waypoints 20-->
<wpt lat="53.1819444444444" lon="-6.95">
<name>EquinoxSun Bottom 19 Bearing 270.380543291034 Elevation -0.0399131871972313 lat/lon 53.1819444444444,-6.95</name>
</wpt>
<!--Waypoints 21-->
<wpt lat="53.0277777777778" lon="-6.57194444444444">
<name>MoonMinusEMinusI Bottom 20 Bearing 148.395997151429 Elevation 0.876050188165524 lat/lon 53.0277777777778,-6.57194444444444</name>
</wpt>
<!--Waypoints 22-->
<wpt lat="53.0272222222222" lon="-6.56777777777778">
<name>MoonMinusEMinusI Centre 21 Bearing 147.793730001006 Elevation 0.914110402828711 lat/lon 53.0272222222222,-6.56777777777778</name>
</wpt>
<!--Waypoints 23-->
<wpt lat="53.0272222222222" lon="-6.56444444444444">
<name>MoonMinusEMinusI Top 22 Bearing 147.264533651544 Elevation 0.975102629892378 lat/lon 53.0272222222222,-6.56444444444444</name>
</wpt>
<!--Waypoints 24-->
<wpt lat="52.8897222222222" lon="-7.07444444444444">
<name>MoonMinusEMinusI Top 23 Bearing 215.59250807547 Elevation -0.0409306524630238 lat/lon 52.8897222222222,-7.07444444444444</name>
</wpt>
<!--Waypoints 25-->
<wpt lat="52.8833333333333" lon="-7.07388888888889">
<name>MoonMinusEMinusI Centre 24 Bearing 214.961225863912 Elevation -0.0491750685933664 lat/lon 52.8833333333333,-7.07388888888889</name>
</wpt>
<!--Waypoints 26-->
<wpt lat="52.8830555555556" lon="-7.06638888888889">
<name>MoonMinusEMinusI Bottom 25 Bearing 214.344729021378 Elevation -0.0655200498752012 lat/lon 52.8830555555556,-7.06638888888889</name>
</wpt>
<!--Waypoints 27-->
<wpt lat="53.0788888888889" lon="-6.48777777777778">
<name>MoonMinusEPlusI Bottom 26 Bearing 125.206516734519 Elevation 0.794692840275675 lat/lon 53.0788888888889,-6.48777777777778</name>
</wpt>
<!--Waypoints 28-->
<wpt lat="53.0805555555556" lon="-6.48722222222222">
<name>MoonMinusEPlusI Centre 27 Bearing 124.72171046734 Elevation 0.802074004571793 lat/lon 53.0805555555556,-6.48722222222222</name>
</wpt>
<!--Waypoints 29-->
<wpt lat="53.0808333333333" lon="-6.485">
<name>MoonMinusEPlusI Top 28 Bearing 124.350887697173 Elevation 0.869486206098329 lat/lon 53.0808333333333,-6.485</name>
</wpt>
<!--Waypoints 30-->
<wpt lat="52.9825" lon="-7.24555555555556">
<name>MoonMinusEPlusI Top 29 Bearing 237.528031294835 Elevation -0.122259797085153 lat/lon 52.9825,-7.24555555555556</name>
</wpt>
<!--Waypoints 31-->
<wpt lat="52.98" lon="-7.24222222222222">
<name>MoonMinusEPlusI Centre 30 Bearing 237.042740990114 Elevation -0.122828368008836 lat/lon 52.98,-7.24222222222222</name>
</wpt>
<!--Waypoints 32-->
<wpt lat="52.9611111111111" lon="-7.27694444444444">
<name>MoonMinusEPlusI Bottom 31 Bearing 236.424310441182 Elevation -0.0556302150675565 lat/lon 52.9611111111111,-7.27694444444444</name>
</wpt>
<!--Waypoints 33-->
<wpt lat="53.2616666666667" lon="-6.51">
<name>MoonPlusEMinusI Bottom 32 Bearing 58.4349398616121 Elevation -0.0232849242271696 lat/lon 53.2616666666667,-6.51</name>
</wpt>
<!--Waypoints 34-->
<wpt lat="53.2683333333333" lon="-6.49611111111111">
<name>MoonPlusEMinusI Centre 33 Bearing 57.9696145019001 Elevation -0.0147174558944026 lat/lon 53.2683333333333,-6.49611111111111</name>
</wpt>
<!--Waypoints 35-->
<wpt lat="53.2683333333333" lon="-6.5">
<name>MoonPlusEMinusI Top 34 Bearing 57.5314296757888 Elevation 0.00899332518307782 lat/lon 53.2683333333333,-6.5</name>
</wpt>
<!--Waypoints 36-->
<wpt lat="53.2313888888889" lon="-6.86138888888889">
<name>MoonPlusEMinusI Top 35 Bearing 302.388747766653 Elevation 0.0510811950619684 lat/lon 53.2313888888889,-6.86138888888889</name>
</wpt>
<!--Waypoints 37-->
<wpt lat="53.2308333333333" lon="-6.86222222222222">
<name>MoonPlusEMinusI Centre 36 Bearing 301.824185843952 Elevation 0.0946612872940294 lat/lon 53.2308333333333,-6.86222222222222</name>
</wpt>
<!--Waypoints 38-->
<wpt lat="53.2297222222222" lon="-6.86277777777778">
<name>MoonPlusEMinusI Bottom 37 Bearing 301.252472803717 Elevation 0.143635991157607 lat/lon 53.2297222222222,-6.86277777777778</name>
</wpt>
<!--Waypoints 39-->
<wpt lat="53.5577777777778" lon="-6.25833333333333">
<name>MoonPlusEPlusI Bottom 38 Bearing 36.5476610951498 Elevation -0.233379154853871 lat/lon 53.5577777777778,-6.25833333333333</name>
</wpt>
<!--Waypoints 40-->
<wpt lat="53.5683333333333" lon="-6.25638888888889">
<name>MoonPlusEPlusI Centre 39 Bearing 35.9096554043162 Elevation -0.232865635653433 lat/lon 53.5683333333333,-6.25638888888889</name>
</wpt>
<!--Waypoints 41-->
<wpt lat="53.5716666666667" lon="-6.26305555555556">
<name>MoonPlusEPlusI Top 40 Bearing 35.2863350366427 Elevation -0.224102138361339 lat/lon 53.5716666666667,-6.26305555555556</name>
</wpt>
<!--Waypoints 42-->
<wpt lat="53.3747222222222" lon="-6.95861111111111">
<name>MoonPlusEPlusI Top 41 Bearing 324.713664963357 Elevation -0.224102138361336 lat/lon 53.3747222222222,-6.95861111111111</name>
</wpt>
<!--Waypoints 43-->
<wpt lat="53.525" lon="-7.14916666666667">
<name>MoonPlusEPlusI Centre 42 Bearing 324.043698593864 Elevation -0.215867462789668 lat/lon 53.525,-7.14916666666667</name>
</wpt>
<!--Waypoints 44-->
<wpt lat="53.5252777777778" lon="-7.15944444444444">
<name>MoonPlusEPlusI Bottom 43 Bearing 323.425682430071 Elevation -0.22351901846344 lat/lon 53.5252777777778,-7.15944444444444</name>
</wpt>
<!--Waypoints 45-->
<wpt lat="53.2636111111111" lon="-6.4825">
<name>CrossQuarterSun1 Bottom 44 Bearing 60.7589740983722 Elevation 0.143918902346932 lat/lon 53.2636111111111,-6.4825</name>
</wpt>
<!--Waypoints 46-->
<wpt lat="53.2655555555556" lon="-6.4825">
<name>CrossQuarterSun1 Centre 45 Bearing 60.2056381615796 Elevation 0.109271620688344 lat/lon 53.2655555555556,-6.4825</name>
</wpt>
<!--Waypoints 47-->
<wpt lat="53.2666666666667" lon="-6.48583333333333">
<name>CrossQuarterSun1 Top 46 Bearing 59.5590608040805 Elevation 0.0260068620795224 lat/lon 53.2666666666667,-6.48583333333333</name>
</wpt>
<!--Waypoints 48-->
<wpt lat="53.2283333333333" lon="-6.86388888888889">
<name>CrossQuarterSun1 Top 47 Bearing 300.313770943617 Elevation 0.0941987434838395 lat/lon 53.2283333333333,-6.86388888888889</name>
</wpt>
<!--Waypoints 49-->
<wpt lat="53.2277777777778" lon="-6.86444444444444">
<name>CrossQuarterSun1 Centre 48 Bearing 299.874657180182 Elevation 0.0659113130486958 lat/lon 53.2277777777778,-6.86444444444444</name>
</wpt>
<!--Waypoints 50-->
<wpt lat="53.2275" lon="-6.86555555555556">
<name>CrossQuarterSun1 Bottom 49 Bearing 299.488613380514 Elevation 0.00965838464335843 lat/lon 53.2275,-6.86555555555556</name>
</wpt>
<!--Waypoints 51-->
<wpt lat="53.0888888888889" lon="-6.47472222222222">
<name>CrossQuarterSun2 Bottom 50 Bearing 121.091272141325 Elevation 1.31822914554546 lat/lon 53.0888888888889,-6.47472222222222</name>
</wpt>
<!--Waypoints 52-->
<wpt lat="53.09" lon="-6.47416666666667">
<name>CrossQuarterSun2 Centre 51 Bearing 120.726168869511 Elevation 1.39346137872134 lat/lon 53.09,-6.47416666666667</name>
</wpt>
<!--Waypoints 53-->
<wpt lat="53.0916666666667" lon="-6.47444444444444">
<name>CrossQuarterSun2 Top 52 Bearing 120.32029604328 Elevation 1.44485056951385 lat/lon 53.0916666666667,-6.47444444444444</name>
</wpt>
<!--Waypoints 54-->
<wpt lat="53.035" lon="-7.19194444444444">
<name>CrossQuarterSun2 Top 53 Bearing 242.392031414915 Elevation -0.0902636323483812 lat/lon 53.035,-7.19194444444444</name>
</wpt>
<!--Waypoints 55-->
<wpt lat="53.03" lon="-7.19722222222222">
<name>CrossQuarterSun2 Centre 54 Bearing 241.865707463791 Elevation -0.0657909141884504 lat/lon 53.03,-7.19722222222222</name>
</wpt>
<!--Waypoints 56-->
<wpt lat="53.0180555555556" lon="-7.22222222222222">
<name>CrossQuarterSun2 Bottom 55 Bearing 241.306629538813 Elevation -0.0244247637125769 lat/lon 53.0180555555556,-7.22222222222222</name>
</wpt>
</gpx>
