<?xml version="1.0" encoding="UTF-8" standalone="no" ?>
<gpx>
<!--Centre Waypoint 53.07188802 -6.61275138-->
<wpt lat="53.07188802" lon="-6.61275138">
<name>athgreany-wi015-010---- lat/lon 53.07188802,-6.61275138</name>
</wpt>
<!--Waypoints 1-->
<wpt lat="53.0566666666667" lon="-6.59583333333333">
<name>WinterSolsticeSun Bottom 0 Bearing 146.579005143141 Elevation 6.43446518866922 lat/lon 53.0566666666667,-6.59583333333333</name>
</wpt>
<!--Waypoints 2-->
<wpt lat="53.0566666666667" lon="-6.59555555555556">
<name>WinterSolsticeSun Centre 1 Bearing 146.124830208334 Elevation 6.54219690398297 lat/lon 53.0566666666667,-6.59555555555556</name>
</wpt>
<!--Waypoints 3-->
<wpt lat="53.0566666666667" lon="-6.59527777777778">
<name>WinterSolsticeSun Top 2 Bearing 145.676534840844 Elevation 6.65076163608137 lat/lon 53.0566666666667,-6.59527777777778</name>
</wpt>
<!--Waypoints 4-->
<wpt lat="53.0711111111111" lon="-6.61416666666667">
<name>WinterSolsticeSun Top 3 Bearing 226.709246307281 Elevation 1.09185343606447 lat/lon 53.0711111111111,-6.61416666666667</name>
</wpt>
<!--Waypoints 5-->
<wpt lat="53.0711111111111" lon="-6.61416666666667">
<name>WinterSolsticeSun Centre 4 Bearing 226.113035153216 Elevation 1.10900199180363 lat/lon 53.0711111111111,-6.61416666666667</name>
</wpt>
<!--Waypoints 6-->
<wpt lat="53.0711111111111" lon="-6.61416666666667">
<name>WinterSolsticeSun Bottom 5 Bearing 225.531130755347 Elevation 1.11707279791968 lat/lon 53.0711111111111,-6.61416666666667</name>
</wpt>
<!--Waypoints 7-->
<wpt lat="53.0811111111111" lon="-6.58805555555556">
<name>SummerSolsticeSun Bottom 6 Bearing 58.3480630268477 Elevation 6.50899195635563 lat/lon 53.0811111111111,-6.58805555555556</name>
</wpt>
<!--Waypoints 8-->
<wpt lat="53.0813888888889" lon="-6.58833333333333">
<name>SummerSolsticeSun Centre 7 Bearing 57.8673723210201 Elevation 6.5092987827695 lat/lon 53.0813888888889,-6.58833333333333</name>
</wpt>
<!--Waypoints 9-->
<wpt lat="53.0813888888889" lon="-6.58833333333333">
<name>SummerSolsticeSun Top 8 Bearing 57.4000872899503 Elevation 6.51935104704295 lat/lon 53.0813888888889,-6.58833333333333</name>
</wpt>
<!--Waypoints 10-->
<wpt lat="53.1011111111111" lon="-6.66361111111111">
<name>SummerSolsticeSun Top 9 Bearing 313.612290545825 Elevation 0.251084517495055 lat/lon 53.1011111111111,-6.66361111111111</name>
</wpt>
<!--Waypoints 11-->
<wpt lat="53.1005555555556" lon="-6.66388888888889">
<name>SummerSolsticeSun Centre 10 Bearing 312.943733797067 Elevation 0.30266309854431 lat/lon 53.1005555555556,-6.66388888888889</name>
</wpt>
<!--Waypoints 12-->
<wpt lat="53.0938888888889" lon="-6.65305555555556">
<name>SummerSolsticeSun Bottom 11 Bearing 312.23434912066 Elevation 0.376529674319112 lat/lon 53.0938888888889,-6.65305555555556</name>
</wpt>
<!--Waypoints 13-->
<wpt lat="53.0705555555556" lon="-6.59277777777778">
<name>EquinoxSun Bottom 12 Bearing 96.6906174629672 Elevation 4.83781818980366 lat/lon 53.0705555555556,-6.59277777777778</name>
</wpt>
<!--Waypoints 14-->
<wpt lat="53.0705555555556" lon="-6.59277777777778">
<name>EquinoxSun Bottom 13 Bearing 96.6771991497582 Elevation 4.8281379512433 lat/lon 53.0705555555556,-6.59277777777778</name>
</wpt>
<!--Waypoints 15-->
<wpt lat="53.0705555555556" lon="-6.59277777777778">
<name>EquinoxSun Bottom 14 Bearing 96.6771991497582 Elevation 4.8281379512433 lat/lon 53.0705555555556,-6.59277777777778</name>
</wpt>
<!--Waypoints 16-->
<wpt lat="53.0708333333333" lon="-6.59277777777778">
<name>EquinoxSun Centre 15 Bearing 96.0211949729964 Elevation 4.67805197712931 lat/lon 53.0708333333333,-6.59277777777778</name>
</wpt>
<!--Waypoints 17-->
<wpt lat="53.0708333333333" lon="-6.59277777777778">
<name>EquinoxSun Top 16 Bearing 95.3788644349224 Elevation 4.53726760753171 lat/lon 53.0708333333333,-6.59277777777778</name>
</wpt>
<!--Waypoints 18-->
<wpt lat="53.0716666666667" lon="-6.65611111111111">
<name>EquinoxSun Top 17 Bearing 269.120958140398 Elevation 1.35364440308646 lat/lon 53.0716666666667,-6.65611111111111</name>
</wpt>
<!--Waypoints 19-->
<wpt lat="53.0713888888889" lon="-6.65638888888889">
<name>EquinoxSun Centre 18 Bearing 268.680874930817 Elevation 1.35096816523965 lat/lon 53.0713888888889,-6.65638888888889</name>
</wpt>
<!--Waypoints 20-->
<wpt lat="53.0711111111111" lon="-6.65666666666667">
<name>EquinoxSun Bottom 19 Bearing 268.20747105049 Elevation 1.37080984985895 lat/lon 53.0711111111111,-6.65666666666667</name>
</wpt>
<!--Waypoints 21-->
<wpt lat="53.0572222222222" lon="-6.60361111111111">
<name>MoonMinusEMinusI Bottom 20 Bearing 159.6638205406 Elevation 4.30050410957618 lat/lon 53.0572222222222,-6.60361111111111</name>
</wpt>
<!--Waypoints 22-->
<wpt lat="53.0575" lon="-6.60333333333333">
<name>MoonMinusEMinusI Centre 21 Bearing 158.906709090036 Elevation 4.37577678567908 lat/lon 53.0575,-6.60333333333333</name>
</wpt>
<!--Waypoints 23-->
<wpt lat="53.0566666666667" lon="-6.6025">
<name>MoonMinusEMinusI Top 22 Bearing 158.267630376606 Elevation 4.47541704763591 lat/lon 53.0566666666667,-6.6025</name>
</wpt>
<!--Waypoints 24-->
<wpt lat="53.0708333333333" lon="-6.61388888888889">
<name>MoonMinusEMinusI Top 23 Bearing 211.928814274798 Elevation 1.34170553048815 lat/lon 53.0708333333333,-6.61388888888889</name>
</wpt>
<!--Waypoints 25-->
<wpt lat="53.0708333333333" lon="-6.61388888888889">
<name>MoonMinusEMinusI Centre 24 Bearing 211.30484458689 Elevation 1.30853163439965 lat/lon 53.0708333333333,-6.61388888888889</name>
</wpt>
<!--Waypoints 26-->
<wpt lat="53.0708333333333" lon="-6.61388888888889">
<name>MoonMinusEMinusI Bottom 25 Bearing 210.668852262344 Elevation 1.27625510988262 lat/lon 53.0708333333333,-6.61388888888889</name>
</wpt>
<!--Waypoints 27-->
<wpt lat="53.0566666666667" lon="-6.59055555555556">
<name>MoonMinusEPlusI Bottom 26 Bearing 139.253539450264 Elevation 8.00065892357703 lat/lon 53.0566666666667,-6.59055555555556</name>
</wpt>
<!--Waypoints 28-->
<wpt lat="53.0566666666667" lon="-6.59055555555556">
<name>MoonMinusEPlusI Centre 27 Bearing 138.796313697964 Elevation 8.07770556109195 lat/lon 53.0566666666667,-6.59055555555556</name>
</wpt>
<!--Waypoints 29-->
<wpt lat="53.0569444444444" lon="-6.59055555555556">
<name>MoonMinusEPlusI Top 28 Bearing 138.32367858086 Elevation 8.14636814638898 lat/lon 53.0569444444444,-6.59055555555556</name>
</wpt>
<!--Waypoints 30-->
<wpt lat="53.0713888888889" lon="-6.61444444444444">
<name>MoonMinusEPlusI Top 29 Bearing 236.001207704434 Elevation 0.735179831242909 lat/lon 53.0713888888889,-6.61444444444444</name>
</wpt>
<!--Waypoints 31-->
<wpt lat="53.0713888888889" lon="-6.61444444444444">
<name>MoonMinusEPlusI Centre 30 Bearing 235.441872073076 Elevation 0.770135173827555 lat/lon 53.0713888888889,-6.61444444444444</name>
</wpt>
<!--Waypoints 32-->
<wpt lat="53.0713888888889" lon="-6.61444444444444">
<name>MoonMinusEPlusI Centre 31 Bearing 235.441872073076 Elevation 0.770135173827555 lat/lon 53.0713888888889,-6.61444444444444</name>
</wpt>
<!--Waypoints 33-->
<wpt lat="53.0713888888889" lon="-6.61444444444444">
<name>MoonMinusEPlusI Centre 32 Bearing 235.42842137225 Elevation 0.777326833772846 lat/lon 53.0713888888889,-6.61444444444444</name>
</wpt>
<!--Waypoints 34-->
<wpt lat="53.0713888888889" lon="-6.61444444444444">
<name>MoonMinusEPlusI Bottom 33 Bearing 234.869600628237 Elevation 0.810428816177958 lat/lon 53.0713888888889,-6.61444444444444</name>
</wpt>
<!--Waypoints 35-->
<wpt lat="53.0786111111111" lon="-6.58555555555556">
<name>MoonPlusEMinusI Bottom 34 Bearing 68.2071710931158 Elevation 6.17771812681226 lat/lon 53.0786111111111,-6.58555555555556</name>
</wpt>
<!--Waypoints 36-->
<wpt lat="53.0786111111111" lon="-6.58555555555556">
<name>MoonPlusEMinusI Centre 35 Bearing 67.8672040833592 Elevation 6.25121249511413 lat/lon 53.0786111111111,-6.58555555555556</name>
</wpt>
<!--Waypoints 37-->
<wpt lat="53.0788888888889" lon="-6.58583333333333">
<name>MoonPlusEMinusI Top 36 Bearing 67.5275172167673 Elevation 6.32514748999559 lat/lon 53.0788888888889,-6.58583333333333</name>
</wpt>
<!--Waypoints 38-->
<wpt lat="53.0877777777778" lon="-6.65722222222222">
<name>MoonPlusEMinusI Top 37 Bearing 300.681598486277 Elevation 0.943331403888823 lat/lon 53.0877777777778,-6.65722222222222</name>
</wpt>
<!--Waypoints 39-->
<wpt lat="53.0875" lon="-6.65722222222222">
<name>MoonPlusEMinusI Centre 38 Bearing 300.196747055371 Elevation 0.950246290405934 lat/lon 53.0875,-6.65722222222222</name>
</wpt>
<!--Waypoints 40-->
<wpt lat="53.0875" lon="-6.65777777777778">
<name>MoonPlusEMinusI Bottom 39 Bearing 299.691594564069 Elevation 0.969939198460368 lat/lon 53.0875,-6.65777777777778</name>
</wpt>
<!--Waypoints 41-->
<wpt lat="53.0836111111111" lon="-6.59083333333333">
<name>MoonPlusEPlusI Bottom 40 Bearing 48.6189275270039 Elevation 5.52867268964564 lat/lon 53.0836111111111,-6.59083333333333</name>
</wpt>
<!--Waypoints 42-->
<wpt lat="53.0836111111111" lon="-6.59083333333333">
<name>MoonPlusEPlusI Bottom 41 Bearing 48.6063371466741 Elevation 5.52131144898581 lat/lon 53.0836111111111,-6.59083333333333</name>
</wpt>
<!--Waypoints 43-->
<wpt lat="53.0836111111111" lon="-6.59083333333333">
<name>MoonPlusEPlusI Bottom 42 Bearing 48.60004169548 Elevation 5.51763149252528 lat/lon 53.0836111111111,-6.59083333333333</name>
</wpt>
<!--Waypoints 44-->
<wpt lat="53.0838888888889" lon="-6.59111111111111">
<name>MoonPlusEPlusI Centre 43 Bearing 47.8495017453197 Elevation 5.37704577058814 lat/lon 53.0838888888889,-6.59111111111111</name>
</wpt>
<!--Waypoints 45-->
<wpt lat="53.0838888888889" lon="-6.59111111111111">
<name>MoonPlusEPlusI Centre 44 Bearing 47.8369040937347 Elevation 5.3697795153077 lat/lon 53.0838888888889,-6.59111111111111</name>
</wpt>
<!--Waypoints 46-->
<wpt lat="53.0838888888889" lon="-6.59111111111111">
<name>MoonPlusEPlusI Centre 45 Bearing 47.8369040937347 Elevation 5.3697795153077 lat/lon 53.0838888888889,-6.59111111111111</name>
</wpt>
<!--Waypoints 47-->
<wpt lat="53.0838888888889" lon="-6.59138888888889">
<name>MoonPlusEPlusI Top 46 Bearing 47.062117018925 Elevation 5.22000941243884 lat/lon 53.0838888888889,-6.59138888888889</name>
</wpt>
<!--Waypoints 48-->
<wpt lat="53.1077777777778" lon="-6.65638888888889">
<name>MoonPlusEPlusI Top 47 Bearing 323.823084442889 Elevation 0.0268092753817466 lat/lon 53.1077777777778,-6.65638888888889</name>
</wpt>
<!--Waypoints 49-->
<wpt lat="53.1075" lon="-6.65694444444444">
<name>MoonPlusEPlusI Centre 48 Bearing 323.173140755931 Elevation 0.0334813752089798 lat/lon 53.1075,-6.65694444444444</name>
</wpt>
<!--Waypoints 50-->
<wpt lat="53.1075" lon="-6.65805555555556">
<name>MoonPlusEPlusI Bottom 49 Bearing 322.548414392299 Elevation 0.0336305742755644 lat/lon 53.1075,-6.65805555555556</name>
</wpt>
<!--Waypoints 51-->
<wpt lat="53.0780555555556" lon="-6.58527777777778">
<name>CrossQuarterSun1 Bottom 50 Bearing 69.640237334381 Elevation 5.82681080400956 lat/lon 53.0780555555556,-6.58527777777778</name>
</wpt>
<!--Waypoints 52-->
<wpt lat="53.0780555555556" lon="-6.58555555555556">
<name>CrossQuarterSun1 Centre 51 Bearing 69.3140575475668 Elevation 5.91876782861145 lat/lon 53.0780555555556,-6.58555555555556</name>
</wpt>
<!--Waypoints 53-->
<wpt lat="53.0783333333333" lon="-6.58555555555556">
<name>CrossQuarterSun1 Top 52 Bearing 68.9751588386523 Elevation 6.00194040445302 lat/lon 53.0783333333333,-6.58555555555556</name>
</wpt>
<!--Waypoints 54-->
<wpt lat="53.0869444444444" lon="-6.65833333333333">
<name>CrossQuarterSun1 Top 53 Bearing 298.568227983949 Elevation 1.02835395094342 lat/lon 53.0869444444444,-6.65833333333333</name>
</wpt>
<!--Waypoints 55-->
<wpt lat="53.0858333333333" lon="-6.65638888888889">
<name>CrossQuarterSun1 Centre 54 Bearing 297.962840300601 Elevation 1.10130877825572 lat/lon 53.0858333333333,-6.65638888888889</name>
</wpt>
<!--Waypoints 56-->
<wpt lat="53.0858333333333" lon="-6.65638888888889">
<name>CrossQuarterSun1 Centre 55 Bearing 297.962840300601 Elevation 1.10130877825572 lat/lon 53.0858333333333,-6.65638888888889</name>
</wpt>
<!--Waypoints 57-->
<wpt lat="53.0858333333333" lon="-6.65638888888889">
<name>CrossQuarterSun1 Centre 56 Bearing 297.949575878782 Elevation 1.10917940269603 lat/lon 53.0858333333333,-6.65638888888889</name>
</wpt>
<!--Waypoints 58-->
<wpt lat="53.0858333333333" lon="-6.65694444444444">
<name>CrossQuarterSun1 Bottom 57 Bearing 297.284109835319 Elevation 1.22023615909321 lat/lon 53.0858333333333,-6.65694444444444</name>
</wpt>
<!--Waypoints 59-->
<wpt lat="53.0858333333333" lon="-6.65694444444444">
<name>CrossQuarterSun1 Bottom 58 Bearing 297.284109835319 Elevation 1.22023615909321 lat/lon 53.0858333333333,-6.65694444444444</name>
</wpt>
<!--Waypoints 60-->
<wpt lat="53.0858333333333" lon="-6.65694444444444">
<name>CrossQuarterSun1 Bottom 59 Bearing 297.27085477418 Elevation 1.22820812704464 lat/lon 53.0858333333333,-6.65694444444444</name>
</wpt>
<!--Waypoints 61-->
<wpt lat="53.0591666666667" lon="-6.59">
<name>CrossQuarterSun2 Bottom 60 Bearing 133.27946943683 Elevation 8.14221348529013 lat/lon 53.0591666666667,-6.59</name>
</wpt>
<!--Waypoints 62-->
<wpt lat="53.0591666666667" lon="-6.59">
<name>CrossQuarterSun2 Bottom 61 Bearing 133.265177592046 Elevation 8.13500917841224 lat/lon 53.0591666666667,-6.59</name>
</wpt>
<!--Waypoints 63-->
<wpt lat="53.0591666666667" lon="-6.59">
<name>CrossQuarterSun2 Bottom 62 Bearing 133.265177592046 Elevation 8.13500917841224 lat/lon 53.0591666666667,-6.59</name>
</wpt>
<!--Waypoints 64-->
<wpt lat="53.0591666666667" lon="-6.58944444444444">
<name>CrossQuarterSun2 Centre 63 Bearing 132.534266742534 Elevation 8.06089466745135 lat/lon 53.0591666666667,-6.58944444444444</name>
</wpt>
<!--Waypoints 65-->
<wpt lat="53.0597222222222" lon="-6.59">
<name>CrossQuarterSun2 Top 64 Bearing 131.824422225382 Elevation 7.99357100976576 lat/lon 53.0597222222222,-6.59</name>
</wpt>
<!--Waypoints 66-->
<wpt lat="53.0594444444444" lon="-6.64972222222222">
<name>CrossQuarterSun2 Top 65 Bearing 240.746318052299 Elevation 0.877631476890765 lat/lon 53.0594444444444,-6.64972222222222</name>
</wpt>
<!--Waypoints 67-->
<wpt lat="53.0591666666667" lon="-6.65">
<name>CrossQuarterSun2 Centre 66 Bearing 240.273229993414 Elevation 0.869011421120189 lat/lon 53.0591666666667,-6.65</name>
</wpt>
<!--Waypoints 68-->
<wpt lat="53.0591666666667" lon="-6.64972222222222">
<name>CrossQuarterSun2 Bottom 67 Bearing 239.827351555964 Elevation 0.844073672676988 lat/lon 53.0591666666667,-6.64972222222222</name>
</wpt>
</gpx>
