<?xml version="1.0" encoding="UTF-8" standalone="no" ?>
<gpx>
<!--Centre Waypoint 53.05532822 -6.68117419-->
<wpt lat="53.05532822" lon="-6.68117419">
<name>forristeen-wi015-018---- lat/lon 53.05532822,-6.68117419</name>
</wpt>
<!--Waypoints 1-->
<wpt lat="53.0538888888889" lon="-6.67916666666667">
<name>WinterSolsticeSun Bottom 0 Bearing 142.417701751909 Elevation 4.76926364099345 lat/lon 53.0538888888889,-6.67916666666667</name>
</wpt>
<!--Waypoints 2-->
<wpt lat="53.0538888888889" lon="-6.67916666666667">
<name>WinterSolsticeSun Centre 1 Bearing 141.848883516534 Elevation 4.80917648785716 lat/lon 53.0538888888889,-6.67916666666667</name>
</wpt>
<!--Waypoints 3-->
<wpt lat="53.0538888888889" lon="-6.67916666666667">
<name>WinterSolsticeSun Top 2 Bearing 141.27191330855 Elevation 4.84304102706971 lat/lon 53.0538888888889,-6.67916666666667</name>
</wpt>
<!--Waypoints 4-->
<wpt lat="53.0530555555556" lon="-6.68527777777778">
<name>WinterSolsticeSun Top 3 Bearing 226.400824764373 Elevation 1.25139697283673 lat/lon 53.0530555555556,-6.68527777777778</name>
</wpt>
<!--Waypoints 5-->
<wpt lat="53.0530555555556" lon="-6.68527777777778">
<name>WinterSolsticeSun Top 4 Bearing 226.400824764373 Elevation 1.25139697283673 lat/lon 53.0530555555556,-6.68527777777778</name>
</wpt>
<!--Waypoints 6-->
<wpt lat="53.0530555555556" lon="-6.68527777777778">
<name>WinterSolsticeSun Top 5 Bearing 226.38068408273 Elevation 1.26115893983089 lat/lon 53.0530555555556,-6.68527777777778</name>
</wpt>
<!--Waypoints 7-->
<wpt lat="53.0530555555556" lon="-6.68527777777778">
<name>WinterSolsticeSun Centre 6 Bearing 225.804540148635 Elevation 1.26732040618545 lat/lon 53.0530555555556,-6.68527777777778</name>
</wpt>
<!--Waypoints 8-->
<wpt lat="53.0530555555556" lon="-6.68527777777778">
<name>WinterSolsticeSun Bottom 7 Bearing 225.202439914953 Elevation 1.28368105432347 lat/lon 53.0530555555556,-6.68527777777778</name>
</wpt>
<!--Waypoints 9-->
<wpt lat="53.0627777777778" lon="-6.66666666666667">
<name>SummerSolsticeSun Bottom 8 Bearing 49.8091764855411 Elevation 1.3843293189811 lat/lon 53.0627777777778,-6.66666666666667</name>
</wpt>
<!--Waypoints 10-->
<wpt lat="53.0630555555556" lon="-6.66666666666667">
<name>SummerSolsticeSun Centre 9 Bearing 49.2796976272042 Elevation 1.38639748588163 lat/lon 53.0630555555556,-6.66666666666667</name>
</wpt>
<!--Waypoints 11-->
<wpt lat="53.0630555555556" lon="-6.66666666666667">
<name>SummerSolsticeSun Top 10 Bearing 48.7246462648286 Elevation 1.376906362356 lat/lon 53.0630555555556,-6.66666666666667</name>
</wpt>
<!--Waypoints 12-->
<wpt lat="53.1994444444444" lon="-6.92472222222222">
<name>SummerSolsticeSun Top 11 Bearing 314.690123470223 Elevation -0.240091508613928 lat/lon 53.1994444444444,-6.92472222222222</name>
</wpt>
<!--Waypoints 13-->
<wpt lat="53.1991666666667" lon="-6.93166666666667">
<name>SummerSolsticeSun Centre 12 Bearing 313.786270548485 Elevation -0.0900538692141341 lat/lon 53.1991666666667,-6.93166666666667</name>
</wpt>
<!--Waypoints 14-->
<wpt lat="53.1986111111111" lon="-6.93111111111111">
<name>SummerSolsticeSun Centre 13 Bearing 313.786270548485 Elevation -0.0900538692141341 lat/lon 53.1986111111111,-6.93111111111111</name>
</wpt>
<!--Waypoints 15-->
<wpt lat="53.1988888888889" lon="-6.93166666666667">
<name>SummerSolsticeSun Centre 14 Bearing 313.766168019087 Elevation -0.081059871025138 lat/lon 53.1988888888889,-6.93166666666667</name>
</wpt>
<!--Waypoints 16-->
<wpt lat="53.1980555555556" lon="-6.93527777777778">
<name>SummerSolsticeSun Bottom 15 Bearing 313.176687979625 Elevation -0.0674655248229532 lat/lon 53.1980555555556,-6.93527777777778</name>
</wpt>
<!--Waypoints 17-->
<wpt lat="53.0552777777778" lon="-6.67833333333333">
<name>EquinoxSun Bottom 16 Bearing 97.2463728497079 Elevation 5.2419768247635 lat/lon 53.0552777777778,-6.67833333333333</name>
</wpt>
<!--Waypoints 18-->
<wpt lat="53.0552777777778" lon="-6.67833333333333">
<name>EquinoxSun Centre 17 Bearing 96.7912098255337 Elevation 5.23740034457048 lat/lon 53.0552777777778,-6.67833333333333</name>
</wpt>
<!--Waypoints 19-->
<wpt lat="53.0552777777778" lon="-6.67833333333333">
<name>EquinoxSun Top 18 Bearing 96.329344456282 Elevation 5.22765289022442 lat/lon 53.0552777777778,-6.67833333333333</name>
</wpt>
<!--Waypoints 20-->
<wpt lat="53.0630555555556" lon="-7.62111111111111">
<name>EquinoxSun Top 19 Bearing 271.159353634683 Elevation 0.0264785465685626 lat/lon 53.0630555555556,-7.62111111111111</name>
</wpt>
<!--Waypoints 21-->
<wpt lat="53.0558333333333" lon="-6.75805555555556">
<name>EquinoxSun Centre 20 Bearing 270.646048648539 Elevation 0.069995414326977 lat/lon 53.0558333333333,-6.75805555555556</name>
</wpt>
<!--Waypoints 22-->
<wpt lat="53.0555555555556" lon="-6.75722222222222">
<name>EquinoxSun Bottom 21 Bearing 270.232655626341 Elevation 0.0509826893242914 lat/lon 53.0555555555556,-6.75722222222222</name>
</wpt>
<!--Waypoints 23-->
<wpt lat="53.0533333333333" lon="-6.67944444444444">
<name>MoonMinusEMinusI Bottom 22 Bearing 155.475478134206 Elevation 3.21800979056297 lat/lon 53.0533333333333,-6.67944444444444</name>
</wpt>
<!--Waypoints 24-->
<wpt lat="53.0533333333333" lon="-6.67944444444444">
<name>MoonMinusEMinusI Centre 23 Bearing 154.751567483888 Elevation 3.26752067691443 lat/lon 53.0533333333333,-6.67944444444444</name>
</wpt>
<!--Waypoints 25-->
<wpt lat="53.0533333333333" lon="-6.67944444444444">
<name>MoonMinusEMinusI Top 24 Bearing 154.046549070902 Elevation 3.31772564207985 lat/lon 53.0533333333333,-6.67944444444444</name>
</wpt>
<!--Waypoints 26-->
<wpt lat="53.0530555555556" lon="-6.68361111111111">
<name>MoonMinusEMinusI Top 25 Bearing 212.031148488589 Elevation 1.31851203838775 lat/lon 53.0530555555556,-6.68361111111111</name>
</wpt>
<!--Waypoints 27-->
<wpt lat="53.0530555555556" lon="-6.68361111111111">
<name>MoonMinusEMinusI Centre 26 Bearing 211.386742951392 Elevation 1.29312866859826 lat/lon 53.0530555555556,-6.68361111111111</name>
</wpt>
<!--Waypoints 28-->
<wpt lat="53.0530555555556" lon="-6.68361111111111">
<name>MoonMinusEMinusI Bottom 27 Bearing 210.730323938902 Elevation 1.26837475103691 lat/lon 53.0530555555556,-6.68361111111111</name>
</wpt>
<!--Waypoints 29-->
<wpt lat="53.0541666666667" lon="-6.67888888888889">
<name>MoonMinusEPlusI Bottom 28 Bearing 133.54872075446 Elevation 5.29453108835903 lat/lon 53.0541666666667,-6.67888888888889</name>
</wpt>
<!--Waypoints 30-->
<wpt lat="53.0541666666667" lon="-6.67888888888889">
<name>MoonMinusEPlusI Centre 29 Bearing 133.034767290956 Elevation 5.31937509002024 lat/lon 53.0541666666667,-6.67888888888889</name>
</wpt>
<!--Waypoints 31-->
<wpt lat="53.0541666666667" lon="-6.67888888888889">
<name>MoonMinusEPlusI Top 30 Bearing 132.506049573835 Elevation 5.33489392119739 lat/lon 53.0541666666667,-6.67888888888889</name>
</wpt>
<!--Waypoints 32-->
<wpt lat="53.0533333333333" lon="-6.68611111111111">
<name>MoonMinusEPlusI Top 31 Bearing 235.476590773591 Elevation 1.02685493750042 lat/lon 53.0533333333333,-6.68611111111111</name>
</wpt>
<!--Waypoints 33-->
<wpt lat="53.0533333333333" lon="-6.68611111111111">
<name>MoonMinusEPlusI Centre 32 Bearing 234.950735600369 Elevation 1.0424670552167 lat/lon 53.0533333333333,-6.68611111111111</name>
</wpt>
<!--Waypoints 34-->
<wpt lat="53.0533333333333" lon="-6.68583333333333">
<name>MoonMinusEPlusI Bottom 33 Bearing 234.432170973455 Elevation 1.05276285167604 lat/lon 53.0533333333333,-6.68583333333333</name>
</wpt>
<!--Waypoints 35-->
<wpt lat="53.0566666666667" lon="-6.67805555555556">
<name>MoonPlusEMinusI Bottom 34 Bearing 60.756092585283 Elevation 1.22649911831578 lat/lon 53.0566666666667,-6.67805555555556</name>
</wpt>
<!--Waypoints 36-->
<wpt lat="53.0608333333333" lon="-6.66527777777778">
<name>MoonPlusEMinusI Centre 35 Bearing 60.17193097054 Elevation 1.15842636773929 lat/lon 53.0608333333333,-6.66527777777778</name>
</wpt>
<!--Waypoints 37-->
<wpt lat="53.0608333333333" lon="-6.66555555555556">
<name>MoonPlusEMinusI Top 36 Bearing 59.7331348653411 Elevation 1.17729246190787 lat/lon 53.0608333333333,-6.66555555555556</name>
</wpt>
<!--Waypoints 38-->
<wpt lat="53.2791666666667" lon="-7.26055555555556">
<name>MoonPlusEMinusI Top 37 Bearing 303.008129649646 Elevation -0.330057603713582 lat/lon 53.2791666666667,-7.26055555555556</name>
</wpt>
<!--Waypoints 39-->
<wpt lat="53.2944444444444" lon="-7.31166666666667">
<name>MoonPlusEMinusI Centre 38 Bearing 302.54336170217 Elevation -0.340452002398349 lat/lon 53.2944444444444,-7.31166666666667</name>
</wpt>
<!--Waypoints 40-->
<wpt lat="53.3" lon="-7.33944444444444">
<name>MoonPlusEMinusI Bottom 39 Bearing 302.058077384756 Elevation -0.339100916241138 lat/lon 53.3,-7.33944444444444</name>
</wpt>
<!--Waypoints 41-->
<wpt lat="53.0641666666667" lon="-6.66888888888889">
<name>MoonPlusEPlusI Bottom 40 Bearing 40.4476489514569 Elevation 1.26023981786523 lat/lon 53.0641666666667,-6.66888888888889</name>
</wpt>
<!--Waypoints 42-->
<wpt lat="53.0641666666667" lon="-6.66916666666667">
<name>MoonPlusEPlusI Centre 41 Bearing 39.8425460739542 Elevation 1.2511998700599 lat/lon 53.0641666666667,-6.66916666666667</name>
</wpt>
<!--Waypoints 43-->
<wpt lat="53.0641666666667" lon="-6.66944444444444">
<name>MoonPlusEPlusI Top 42 Bearing 39.1732598530505 Elevation 1.21701904974113 lat/lon 53.0641666666667,-6.66944444444444</name>
</wpt>
<!--Waypoints 44-->
<wpt lat="53.6105555555556" lon="-7.345">
<name>MoonPlusEPlusI Top 43 Bearing 324.73371421218 Elevation -0.316540172418303 lat/lon 53.6105555555556,-7.345</name>
</wpt>
<!--Waypoints 45-->
<wpt lat="53.6102777777778" lon="-7.34472222222222">
<name>MoonPlusEPlusI Top 44 Bearing 324.73371421218 Elevation -0.316540172418303 lat/lon 53.6102777777778,-7.34472222222222</name>
</wpt>
<!--Waypoints 46-->
<wpt lat="53.61" lon="-7.345">
<name>MoonPlusEPlusI Top 45 Bearing 324.70707357322 Elevation -0.306928669951852 lat/lon 53.61,-7.345</name>
</wpt>
<!--Waypoints 47-->
<wpt lat="53.4769444444444" lon="-7.19472222222222">
<name>MoonPlusEPlusI Centre 46 Bearing 324.11038386602 Elevation -0.324776294649953 lat/lon 53.4769444444444,-7.19472222222222</name>
</wpt>
<!--Waypoints 48-->
<wpt lat="53.4208333333333" lon="-7.13611111111111">
<name>MoonPlusEPlusI Bottom 47 Bearing 323.492363433457 Elevation -0.332147709949042 lat/lon 53.4208333333333,-7.13611111111111</name>
</wpt>
<!--Waypoints 49-->
<wpt lat="53.0563888888889" lon="-6.67777777777778">
<name>CrossQuarterSun1 Bottom 48 Bearing 63.661556471165 Elevation 1.7938068872279 lat/lon 53.0563888888889,-6.67777777777778</name>
</wpt>
<!--Waypoints 50-->
<wpt lat="53.0563888888889" lon="-6.67777777777778">
<name>CrossQuarterSun1 Centre 49 Bearing 62.970275985846 Elevation 1.65973566600137 lat/lon 53.0563888888889,-6.67777777777778</name>
</wpt>
<!--Waypoints 51-->
<wpt lat="53.0566666666667" lon="-6.67805555555556">
<name>CrossQuarterSun1 Top 50 Bearing 62.2793417414483 Elevation 1.52889526703791 lat/lon 53.0566666666667,-6.67805555555556</name>
</wpt>
<!--Waypoints 52-->
<wpt lat="53.0566666666667" lon="-6.67805555555556">
<name>CrossQuarterSun1 Top 51 Bearing 62.2661177399317 Elevation 1.52083372938065 lat/lon 53.0566666666667,-6.67805555555556</name>
</wpt>
<!--Waypoints 53-->
<wpt lat="53.0566666666667" lon="-6.67805555555556">
<name>CrossQuarterSun1 Top 52 Bearing 62.2595054843562 Elevation 1.51680443426579 lat/lon 53.0566666666667,-6.67805555555556</name>
</wpt>
<!--Waypoints 54-->
<wpt lat="53.2780555555556" lon="-7.30527777777778">
<name>CrossQuarterSun1 Top 53 Bearing 300.995547342538 Elevation -0.32328564268827 lat/lon 53.2780555555556,-7.30527777777778</name>
</wpt>
<!--Waypoints 55-->
<wpt lat="53.2852777777778" lon="-7.33861111111111">
<name>CrossQuarterSun1 Centre 54 Bearing 300.50284652237 Elevation -0.3237518743535 lat/lon 53.2852777777778,-7.33861111111111</name>
</wpt>
<!--Waypoints 56-->
<wpt lat="53.2791666666667" lon="-7.33416666666667">
<name>CrossQuarterSun1 Bottom 55 Bearing 299.99624771007 Elevation -0.315782742054718 lat/lon 53.2791666666667,-7.33416666666667</name>
</wpt>
<!--Waypoints 57-->
<wpt lat="53.0544444444444" lon="-6.67861111111111">
<name>CrossQuarterSun2 Bottom 56 Bearing 128.177351113597 Elevation 5.45059703003226 lat/lon 53.0544444444444,-6.67861111111111</name>
</wpt>
<!--Waypoints 58-->
<wpt lat="53.0544444444444" lon="-6.67861111111111">
<name>CrossQuarterSun2 Centre 57 Bearing 127.641621715031 Elevation 5.45289962112653 lat/lon 53.0544444444444,-6.67861111111111</name>
</wpt>
<!--Waypoints 59-->
<wpt lat="53.0544444444444" lon="-6.67861111111111">
<name>CrossQuarterSun2 Top 58 Bearing 127.105315240045 Elevation 5.45314829142378 lat/lon 53.0544444444444,-6.67861111111111</name>
</wpt>
<!--Waypoints 60-->
<wpt lat="53.0538888888889" lon="-6.68638888888889">
<name>CrossQuarterSun2 Top 59 Bearing 240.833260233875 Elevation 0.83491039318035 lat/lon 53.0538888888889,-6.68638888888889</name>
</wpt>
<!--Waypoints 61-->
<wpt lat="53.0538888888889" lon="-6.68638888888889">
<name>CrossQuarterSun2 Centre 60 Bearing 240.259983524318 Elevation 0.883852040131298 lat/lon 53.0538888888889,-6.68638888888889</name>
</wpt>
<!--Waypoints 62-->
<wpt lat="53.0536111111111" lon="-6.68611111111111">
<name>CrossQuarterSun2 Bottom 61 Bearing 239.707204222907 Elevation 0.919766049498447 lat/lon 53.0536111111111,-6.68611111111111</name>
</wpt>
</gpx>
