<?xml version="1.0" encoding="UTF-8" standalone="no" ?>
<gpx>
<!--Centre Waypoint 53.2731186279 -6.3643696679-->
<wpt lat="53.2731186279" lon="-6.3643696679">
<name>randomcircle138 lat/lon 53.2731186279,-6.3643696679</name>
</wpt>
<!--Waypoints 1-->
<wpt lat="53.2511111111111" lon="-6.33333333333333">
<name>WinterSolsticeSun Bottom 0 Bearing 140.219016602065 Elevation 3.64423779668071 lat/lon 53.2511111111111,-6.33333333333333</name>
</wpt>
<!--Waypoints 2-->
<wpt lat="53.2513888888889" lon="-6.33305555555556">
<name>WinterSolsticeSun Centre 1 Bearing 139.636513650183 Elevation 3.66698550701377 lat/lon 53.2513888888889,-6.33305555555556</name>
</wpt>
<!--Waypoints 3-->
<wpt lat="53.2508333333333" lon="-6.33194444444444">
<name>WinterSolsticeSun Top 2 Bearing 139.156571992243 Elevation 3.73378438043789 lat/lon 53.2508333333333,-6.33194444444444</name>
</wpt>
<!--Waypoints 4-->
<wpt lat="53.2519444444444" lon="-6.39611111111111">
<name>WinterSolsticeSun Top 3 Bearing 221.877512349144 Elevation 3.26012069541472 lat/lon 53.2519444444444,-6.39611111111111</name>
</wpt>
<!--Waypoints 5-->
<wpt lat="53.2522222222222" lon="-6.395">
<name>WinterSolsticeSun Centre 4 Bearing 221.245873831263 Elevation 3.26743624837693 lat/lon 53.2522222222222,-6.395</name>
</wpt>
<!--Waypoints 6-->
<wpt lat="53.2516666666667" lon="-6.39527777777778">
<name>WinterSolsticeSun Bottom 5 Bearing 220.532685934087 Elevation 3.30842223897599 lat/lon 53.2516666666667,-6.39527777777778</name>
</wpt>
<!--Waypoints 7-->
<wpt lat="53.587024780218" lon="-5.81826617951474">
<name>SummerSolsticeSun Bottom 6 Bearing 45.8196113949938 Elevation -0.389354810230497 lat/lon 53.587024780218,-5.81826617951474</name>
</wpt>
<!--Waypoints 8-->
<wpt lat="53.5902861599618" lon="-5.82358001726597">
<name>SummerSolsticeSun Centre 7 Bearing 45.2434067894131 Elevation -0.391346689847011 lat/lon 53.5902861599618,-5.82358001726597</name>
</wpt>
<!--Waypoints 9-->
<wpt lat="53.4855555555556" lon="-6.00861111111111">
<name>SummerSolsticeSun Top 8 Bearing 44.8433895460296 Elevation -0.314998868407176 lat/lon 53.4855555555556,-6.00861111111111</name>
</wpt>
<!--Waypoints 10-->
<wpt lat="53.4458333333333" lon="-6.65583333333333">
<name>SummerSolsticeSun Top 9 Bearing 314.907468069668 Elevation -0.206936714798321 lat/lon 53.4458333333333,-6.65583333333333</name>
</wpt>
<!--Waypoints 11-->
<wpt lat="53.4708333333333" lon="-6.70472222222222">
<name>SummerSolsticeSun Centre 10 Bearing 314.332233421807 Elevation -0.205500558017588 lat/lon 53.4708333333333,-6.70472222222222</name>
</wpt>
<!--Waypoints 12-->
<wpt lat="53.4777777777778" lon="-6.72361111111111">
<name>SummerSolsticeSun Bottom 11 Bearing 313.78972180539 Elevation -0.216602544750648 lat/lon 53.4777777777778,-6.72361111111111</name>
</wpt>
<!--Waypoints 13-->
<wpt lat="53.2782897763378" lon="-5.60833974785297">
<name>EquinoxSun Bottom 12 Bearing 89.0506663955188 Elevation -0.390822042830326 lat/lon 53.2782897763378,-5.60833974785297</name>
</wpt>
<!--Waypoints 14-->
<wpt lat="53.2818403898219" lon="-5.60839959176879">
<name>EquinoxSun Centre 13 Bearing 88.6039088217639 Elevation -0.391206695349216 lat/lon 53.2818403898219,-5.60839959176879</name>
</wpt>
<!--Waypoints 15-->
<wpt lat="53.2853248727147" lon="-5.60850369185642">
<name>EquinoxSun Top 14 Bearing 88.1571511263064 Elevation -0.391538533429895 lat/lon 53.2853248727147,-5.60850369185642</name>
</wpt>
<!--Waypoints 16-->
<wpt lat="53.275" lon="-6.49777777777778">
<name>EquinoxSun Top 15 Bearing 271.301675000977 Elevation -0.0567596938136998 lat/lon 53.275,-6.49777777777778</name>
</wpt>
<!--Waypoints 17-->
<wpt lat="53.2741666666667" lon="-6.49777777777778">
<name>EquinoxSun Centre 16 Bearing 270.694648091667 Elevation 0.0429920158047098 lat/lon 53.2741666666667,-6.49777777777778</name>
</wpt>
<!--Waypoints 18-->
<wpt lat="53.2733333333333" lon="-6.49888888888889">
<name>EquinoxSun Bottom 17 Bearing 270.167794718932 Elevation 0.0932572084262765 lat/lon 53.2733333333333,-6.49888888888889</name>
</wpt>
<!--Waypoints 19-->
<wpt lat="53.2419444444444" lon="-6.34027777777778">
<name>MoonMinusEMinusI Bottom 18 Bearing 155.321155305264 Elevation 2.9835282564039 lat/lon 53.2419444444444,-6.34027777777778</name>
</wpt>
<!--Waypoints 20-->
<wpt lat="53.2419444444444" lon="-6.34027777777778">
<name>MoonMinusEMinusI Bottom 19 Bearing 155.307213148597 Elevation 2.97956740207134 lat/lon 53.2419444444444,-6.34027777777778</name>
</wpt>
<!--Waypoints 21-->
<wpt lat="53.2419444444444" lon="-6.34027777777778">
<name>MoonMinusEMinusI Bottom 20 Bearing 155.293271717989 Elevation 2.97560476481666 lat/lon 53.2419444444444,-6.34027777777778</name>
</wpt>
<!--Waypoints 22-->
<wpt lat="53.2527777777778" lon="-6.34777777777778">
<name>MoonMinusEMinusI Centre 21 Bearing 154.228102013216 Elevation 2.92414227205539 lat/lon 53.2527777777778,-6.34777777777778</name>
</wpt>
<!--Waypoints 23-->
<wpt lat="53.2527777777778" lon="-6.3475">
<name>MoonMinusEMinusI Top 22 Bearing 153.676457197303 Elevation 3.01753771635559 lat/lon 53.2527777777778,-6.3475</name>
</wpt>
<!--Waypoints 24-->
<wpt lat="53.2491666666667" lon="-6.38666666666667">
<name>MoonMinusEMinusI Top 23 Bearing 208.716726092872 Elevation 2.26746707110796 lat/lon 53.2491666666667,-6.38666666666667</name>
</wpt>
<!--Waypoints 25-->
<wpt lat="53.2355555555556" lon="-6.39666666666667">
<name>MoonMinusEMinusI Centre 24 Bearing 207.167795719148 Elevation 2.50179406141569 lat/lon 53.2355555555556,-6.39666666666667</name>
</wpt>
<!--Waypoints 26-->
<wpt lat="53.2355555555556" lon="-6.39666666666667">
<name>MoonMinusEMinusI Centre 25 Bearing 207.167795719148 Elevation 2.50179406141569 lat/lon 53.2355555555556,-6.39666666666667</name>
</wpt>
<!--Waypoints 27-->
<wpt lat="53.2355555555556" lon="-6.39666666666667">
<name>MoonMinusEMinusI Centre 26 Bearing 207.140091650823 Elevation 2.51035737438193 lat/lon 53.2355555555556,-6.39666666666667</name>
</wpt>
<!--Waypoints 28-->
<wpt lat="53.2347222222222" lon="-6.39388888888889">
<name>MoonMinusEMinusI Bottom 27 Bearing 204.616096010824 Elevation 3.00132999843848 lat/lon 53.2347222222222,-6.39388888888889</name>
</wpt>
<!--Waypoints 29-->
<wpt lat="53.2347222222222" lon="-6.39388888888889">
<name>MoonMinusEMinusI Bottom 28 Bearing 204.609123028443 Elevation 3.0033057336015 lat/lon 53.2347222222222,-6.39388888888889</name>
</wpt>
<!--Waypoints 30-->
<wpt lat="53.2347222222222" lon="-6.39388888888889">
<name>MoonMinusEMinusI Bottom 29 Bearing 204.588202994371 Elevation 3.0092302510202 lat/lon 53.2347222222222,-6.39388888888889</name>
</wpt>
<!--Waypoints 31-->
<wpt lat="53.2555555555556" lon="-6.32805555555556">
<name>MoonMinusEPlusI Bottom 30 Bearing 128.957111884509 Elevation 2.75195502046124 lat/lon 53.2555555555556,-6.32805555555556</name>
</wpt>
<!--Waypoints 32-->
<wpt lat="53.2558333333333" lon="-6.32694444444444">
<name>MoonMinusEPlusI Centre 31 Bearing 128.060425038209 Elevation 2.55192171427955 lat/lon 53.2558333333333,-6.32694444444444</name>
</wpt>
<!--Waypoints 33-->
<wpt lat="53.2561111111111" lon="-6.32666666666667">
<name>MoonMinusEPlusI Top 32 Bearing 127.369307053191 Elevation 2.45879078094269 lat/lon 53.2561111111111,-6.32666666666667</name>
</wpt>
<!--Waypoints 34-->
<wpt lat="53.2516666666667" lon="-6.40916666666667">
<name>MoonMinusEPlusI Top 33 Bearing 230.918896752487 Elevation 3.38483847340207 lat/lon 53.2516666666667,-6.40916666666667</name>
</wpt>
<!--Waypoints 35-->
<wpt lat="53.2513888888889" lon="-6.40833333333333">
<name>MoonMinusEPlusI Centre 34 Bearing 230.419224232876 Elevation 3.36778267539121 lat/lon 53.2513888888889,-6.40833333333333</name>
</wpt>
<!--Waypoints 36-->
<wpt lat="53.2580555555556" lon="-6.395">
<name>MoonMinusEPlusI Bottom 35 Bearing 229.92710514117 Elevation 3.34526612312719 lat/lon 53.2580555555556,-6.395</name>
</wpt>
<!--Waypoints 37-->
<wpt lat="53.3811111111111" lon="-6.07694444444444">
<name>MoonPlusEMinusI Bottom 36 Bearing 57.7416542174618 Elevation -0.348223502781517 lat/lon 53.3811111111111,-6.07694444444444</name>
</wpt>
<!--Waypoints 38-->
<wpt lat="53.3827777777778" lon="-6.07888888888889">
<name>MoonPlusEMinusI Centre 37 Bearing 57.1895458428409 Elevation -0.382614330016942 lat/lon 53.3827777777778,-6.07888888888889</name>
</wpt>
<!--Waypoints 39-->
<wpt lat="53.5198198463307" lon="-5.72897620114612">
<name>MoonPlusEMinusI Top 38 Bearing 56.684748531922 Elevation -0.391063069370317 lat/lon 53.5198198463307,-5.72897620114612</name>
</wpt>
<!--Waypoints 40-->
<wpt lat="53.4147222222222" lon="-6.73111111111111">
<name>MoonPlusEMinusI Top 39 Bearing 303.008011915214 Elevation -0.231611108200933 lat/lon 53.4147222222222,-6.73111111111111</name>
</wpt>
<!--Waypoints 41-->
<wpt lat="53.4180555555556" lon="-6.74722222222222">
<name>MoonPlusEMinusI Centre 40 Bearing 302.489889830248 Elevation -0.215344998227747 lat/lon 53.4180555555556,-6.74722222222222</name>
</wpt>
<!--Waypoints 42-->
<wpt lat="53.4161111111111" lon="-6.74972222222222">
<name>MoonPlusEMinusI Bottom 41 Bearing 301.97123550303 Elevation -0.197634706053868 lat/lon 53.4161111111111,-6.74972222222222</name>
</wpt>
<!--Waypoints 43-->
<wpt lat="53.6383191102613" lon="-5.91677652117078">
<name>MoonPlusEPlusI Bottom 42 Bearing 35.9535708902281 Elevation -0.389950653476489 lat/lon 53.6383191102613,-5.91677652117078</name>
</wpt>
<!--Waypoints 44-->
<wpt lat="53.6413318852213" lon="-5.92377779753429">
<name>MoonPlusEPlusI Centre 43 Bearing 35.3022150219463 Elevation -0.390398937463427 lat/lon 53.6413318852213,-5.92377779753429</name>
</wpt>
<!--Waypoints 45-->
<wpt lat="53.6443346687585" lon="-5.93092814552233">
<name>MoonPlusEPlusI Top 44 Bearing 34.6455634490476 Elevation -0.38955365149786 lat/lon 53.6443346687585,-5.93092814552233</name>
</wpt>
<!--Waypoints 46-->
<wpt lat="53.4902777777778" lon="-6.62194444444444">
<name>MoonPlusEPlusI Top 45 Bearing 324.813550354029 Elevation -0.197684906227235 lat/lon 53.4902777777778,-6.62194444444444</name>
</wpt>
<!--Waypoints 47-->
<wpt lat="53.48" lon="-6.61583333333333">
<name>MoonPlusEPlusI Centre 46 Bearing 324.123559062679 Elevation -0.183304392448554 lat/lon 53.48,-6.61583333333333</name>
</wpt>
<!--Waypoints 48-->
<wpt lat="53.4752777777778" lon="-6.61638888888889">
<name>MoonPlusEPlusI Bottom 47 Bearing 323.458881240705 Elevation -0.174676853873786 lat/lon 53.4752777777778,-6.61638888888889</name>
</wpt>
<!--Waypoints 49-->
<wpt lat="53.3736111111111" lon="-6.06944444444444">
<name>CrossQuarterSun1 Bottom 48 Bearing 60.2088957597529 Elevation -0.114524618129844 lat/lon 53.3736111111111,-6.06944444444444</name>
</wpt>
<!--Waypoints 50-->
<wpt lat="53.3716666666667" lon="-6.08138888888889">
<name>CrossQuarterSun1 Centre 49 Bearing 59.6687553960658 Elevation -0.139479822989484 lat/lon 53.3716666666667,-6.08138888888889</name>
</wpt>
<!--Waypoints 51-->
<wpt lat="53.3727777777778" lon="-6.08333333333333">
<name>CrossQuarterSun1 Top 50 Bearing 59.2230640824041 Elevation -0.113329419720669 lat/lon 53.3727777777778,-6.08333333333333</name>
</wpt>
<!--Waypoints 52-->
<wpt lat="53.4063888888889" lon="-6.73916666666667">
<name>CrossQuarterSun1 Top 51 Bearing 300.891044147593 Elevation -0.173585261416944 lat/lon 53.4063888888889,-6.73916666666667</name>
</wpt>
<!--Waypoints 53-->
<wpt lat="53.4061111111111" lon="-6.74611111111111">
<name>CrossQuarterSun1 Centre 52 Bearing 300.378230234357 Elevation -0.164412032627391 lat/lon 53.4061111111111,-6.74611111111111</name>
</wpt>
<!--Waypoints 54-->
<wpt lat="53.4055555555556" lon="-6.75222222222222">
<name>CrossQuarterSun1 Bottom 53 Bearing 299.898484571675 Elevation -0.171811883192286 lat/lon 53.4055555555556,-6.75222222222222</name>
</wpt>
<!--Waypoints 55-->
<wpt lat="53.2413888888889" lon="-6.28277777777778">
<name>CrossQuarterSun2 Bottom 54 Bearing 123.009281093681 Elevation 2.37854275741079 lat/lon 53.2413888888889,-6.28277777777778</name>
</wpt>
<!--Waypoints 56-->
<wpt lat="53.2430555555556" lon="-6.28388888888889">
<name>CrossQuarterSun2 Centre 55 Bearing 122.184525211555 Elevation 2.19402012308669 lat/lon 53.2430555555556,-6.28388888888889</name>
</wpt>
<!--Waypoints 57-->
<wpt lat="53.2363888888889" lon="-6.26416666666667">
<name>CrossQuarterSun2 Top 56 Bearing 121.555871070704 Elevation 2.1207844835171 lat/lon 53.2363888888889,-6.26416666666667</name>
</wpt>
<!--Waypoints 58-->
<wpt lat="53.26" lon="-6.39722222222222">
<name>CrossQuarterSun2 Top 57 Bearing 236.09135565435 Elevation 3.49312541615421 lat/lon 53.26,-6.39722222222222</name>
</wpt>
<!--Waypoints 59-->
<wpt lat="53.26" lon="-6.39638888888889">
<name>CrossQuarterSun2 Centre 58 Bearing 235.577096868905 Elevation 3.49167012569868 lat/lon 53.26,-6.39638888888889</name>
</wpt>
<!--Waypoints 60-->
<wpt lat="53.2597222222222" lon="-6.39666666666667">
<name>CrossQuarterSun2 Bottom 59 Bearing 235.070222516273 Elevation 3.48458933058895 lat/lon 53.2597222222222,-6.39666666666667</name>
</wpt>
</gpx>
