<?xml version="1.0" encoding="UTF-8" standalone="no" ?>
<gpx>
<!--Centre Waypoint 53.1729932 -6.55004593-->
<wpt lat="53.1729932" lon="-6.55004593">
<name>blessington-demesne-wi005-014---- lat/lon 53.1729932,-6.55004593</name>
</wpt>
<!--Waypoints 1-->
<wpt lat="53.1016666666667" lon="-6.43777777777778">
<name>WinterSolsticeSun Bottom 0 Bearing 136.621911564544 Elevation 2.06910304646462 lat/lon 53.1016666666667,-6.43777777777778</name>
</wpt>
<!--Waypoints 2-->
<wpt lat="53.0908333333333" lon="-6.41833333333333">
<name>WinterSolsticeSun Centre 1 Bearing 136.087191873574 Elevation 2.09458153588133 lat/lon 53.0908333333333,-6.41833333333333</name>
</wpt>
<!--Waypoints 3-->
<wpt lat="53.0913888888889" lon="-6.41722222222222">
<name>WinterSolsticeSun Top 2 Bearing 135.646506997451 Elevation 2.16327205576349 lat/lon 53.0913888888889,-6.41722222222222</name>
</wpt>
<!--Waypoints 4-->
<wpt lat="53.1586111111111" lon="-6.57444444444444">
<name>WinterSolsticeSun Top 3 Bearing 225.41628252967 Elevation 1.65237878234387 lat/lon 53.1586111111111,-6.57444444444444</name>
</wpt>
<!--Waypoints 5-->
<wpt lat="53.1575" lon="-6.57611111111111">
<name>WinterSolsticeSun Centre 4 Bearing 224.806250806873 Elevation 1.66938243121322 lat/lon 53.1575,-6.57611111111111</name>
</wpt>
<!--Waypoints 6-->
<wpt lat="53.1569444444444" lon="-6.57638888888889">
<name>WinterSolsticeSun Bottom 5 Bearing 224.264686272402 Elevation 1.65152997027631 lat/lon 53.1569444444444,-6.57638888888889</name>
</wpt>
<!--Waypoints 7-->
<wpt lat="53.1841666666667" lon="-6.52888888888889">
<name>SummerSolsticeSun Bottom 6 Bearing 49.0163595691949 Elevation 1.04483854359466 lat/lon 53.1841666666667,-6.52888888888889</name>
</wpt>
<!--Waypoints 8-->
<wpt lat="53.1844444444444" lon="-6.52916666666667">
<name>SummerSolsticeSun Centre 7 Bearing 48.5201297590922 Elevation 1.06741730325713 lat/lon 53.1844444444444,-6.52916666666667</name>
</wpt>
<!--Waypoints 9-->
<wpt lat="53.1844444444444" lon="-6.52916666666667">
<name>SummerSolsticeSun Top 8 Bearing 47.9783241029728 Elevation 1.06870389807549 lat/lon 53.1844444444444,-6.52916666666667</name>
</wpt>
<!--Waypoints 10-->
<wpt lat="53.1811111111111" lon="-6.56666666666667">
<name>SummerSolsticeSun Top 9 Bearing 309.110949502382 Elevation 2.60976303846139 lat/lon 53.1811111111111,-6.56666666666667</name>
</wpt>
<!--Waypoints 11-->
<wpt lat="53.1811111111111" lon="-6.56694444444444">
<name>SummerSolsticeSun Centre 10 Bearing 308.55577104986 Elevation 2.62849776761747 lat/lon 53.1811111111111,-6.56694444444444</name>
</wpt>
<!--Waypoints 12-->
<wpt lat="53.1811111111111" lon="-6.56694444444444">
<name>SummerSolsticeSun Bottom 11 Bearing 308.039042810307 Elevation 2.62722400269792 lat/lon 53.1811111111111,-6.56694444444444</name>
</wpt>
<!--Waypoints 13-->
<wpt lat="53.1686111111111" lon="-6.335">
<name>EquinoxSun Bottom 12 Bearing 91.9678241327007 Elevation 1.48542053614626 lat/lon 53.1686111111111,-6.335</name>
</wpt>
<!--Waypoints 14-->
<wpt lat="53.1691666666667" lon="-6.33555555555556">
<name>EquinoxSun Centre 13 Bearing 91.6478453677843 Elevation 1.57063070245627 lat/lon 53.1691666666667,-6.33555555555556</name>
</wpt>
<!--Waypoints 15-->
<wpt lat="53.17" lon="-6.33666666666667">
<name>EquinoxSun Top 14 Bearing 91.2878059503585 Elevation 1.62874675352334 lat/lon 53.17,-6.33666666666667</name>
</wpt>
<!--Waypoints 16-->
<wpt lat="53.1722222222222" lon="-6.56972222222222">
<name>EquinoxSun Top 15 Bearing 265.497966332921 Elevation 3.89243420757009 lat/lon 53.1722222222222,-6.56972222222222</name>
</wpt>
<!--Waypoints 17-->
<wpt lat="53.1722222222222" lon="-6.57027777777778">
<name>EquinoxSun Centre 16 Bearing 265.036954363195 Elevation 3.90220017497074 lat/lon 53.1722222222222,-6.57027777777778</name>
</wpt>
<!--Waypoints 18-->
<wpt lat="53.1719444444444" lon="-6.57">
<name>EquinoxSun Bottom 17 Bearing 264.555828370223 Elevation 3.92612485338834 lat/lon 53.1719444444444,-6.57</name>
</wpt>
<!--Waypoints 19-->
<wpt lat="53.09" lon="-6.47805555555556">
<name>MoonMinusEMinusI Bottom 18 Bearing 152.524460354768 Elevation 2.23450752671645 lat/lon 53.09,-6.47805555555556</name>
</wpt>
<!--Waypoints 20-->
<wpt lat="53.0905555555556" lon="-6.47722222222222">
<name>MoonMinusEMinusI Centre 19 Bearing 152.089824684046 Elevation 2.35333701850041 lat/lon 53.0905555555556,-6.47722222222222</name>
</wpt>
<!--Waypoints 21-->
<wpt lat="53.0911111111111" lon="-6.47638888888889">
<name>MoonMinusEMinusI Top 20 Bearing 151.660658433654 Elevation 2.47287434662723 lat/lon 53.0911111111111,-6.47638888888889</name>
</wpt>
<!--Waypoints 22-->
<wpt lat="53.155" lon="-6.56944444444444">
<name>MoonMinusEMinusI Top 21 Bearing 212.633829970996 Elevation 1.01701241080993 lat/lon 53.155,-6.56944444444444</name>
</wpt>
<!--Waypoints 23-->
<wpt lat="53.1547222222222" lon="-6.56916666666667">
<name>MoonMinusEMinusI Centre 22 Bearing 212.064005708046 Elevation 0.96943603638469 lat/lon 53.1547222222222,-6.56916666666667</name>
</wpt>
<!--Waypoints 24-->
<wpt lat="53.1544444444444" lon="-6.56916666666667">
<name>MoonMinusEMinusI Bottom 23 Bearing 211.502459195002 Elevation 0.91667638364658 lat/lon 53.1544444444444,-6.56916666666667</name>
</wpt>
<!--Waypoints 25-->
<wpt lat="53.1038888888889" lon="-6.40833333333333">
<name>MoonMinusEPlusI Bottom 24 Bearing 129.151508707407 Elevation 2.91838717211436 lat/lon 53.1038888888889,-6.40833333333333</name>
</wpt>
<!--Waypoints 26-->
<wpt lat="53.1041666666667" lon="-6.40666666666667">
<name>MoonMinusEPlusI Centre 25 Bearing 128.638857301572 Elevation 2.92553430298909 lat/lon 53.1041666666667,-6.40666666666667</name>
</wpt>
<!--Waypoints 27-->
<wpt lat="53.1033333333333" lon="-6.39833333333333">
<name>MoonMinusEPlusI Top 26 Bearing 127.446998098444 Elevation 2.56082041037777 lat/lon 53.1033333333333,-6.39833333333333</name>
</wpt>
<!--Waypoints 28-->
<wpt lat="53.1616666666667" lon="-6.57555555555556">
<name>MoonMinusEPlusI Top 27 Bearing 233.010925121774 Elevation 2.31043196869824 lat/lon 53.1616666666667,-6.57555555555556</name>
</wpt>
<!--Waypoints 29-->
<wpt lat="53.1613888888889" lon="-6.57555555555556">
<name>MoonMinusEPlusI Centre 28 Bearing 232.607193089958 Elevation 2.2501474892614 lat/lon 53.1613888888889,-6.57555555555556</name>
</wpt>
<!--Waypoints 30-->
<wpt lat="53.1613888888889" lon="-6.57583333333333">
<name>MoonMinusEPlusI Bottom 29 Bearing 232.197227896019 Elevation 2.19258500516265 lat/lon 53.1613888888889,-6.57583333333333</name>
</wpt>
<!--Waypoints 31-->
<wpt lat="53.2169444444444" lon="-6.41944444444444">
<name>MoonPlusEMinusI Bottom 30 Bearing 60.7132231668971 Elevation 1.25069432322025 lat/lon 53.2169444444444,-6.41944444444444</name>
</wpt>
<!--Waypoints 32-->
<wpt lat="53.2169444444444" lon="-6.42166666666667">
<name>MoonPlusEMinusI Centre 31 Bearing 60.2475663235531 Elevation 1.25351392955043 lat/lon 53.2169444444444,-6.42166666666667</name>
</wpt>
<!--Waypoints 33-->
<wpt lat="53.2177777777778" lon="-6.42222222222222">
<name>MoonPlusEMinusI Top 32 Bearing 59.690137294706 Elevation 1.20333318724509 lat/lon 53.2177777777778,-6.42222222222222</name>
</wpt>
<!--Waypoints 34-->
<wpt lat="53.1788888888889" lon="-6.56888888888889">
<name>MoonPlusEMinusI Top 33 Bearing 296.838824201496 Elevation 3.37066521371189 lat/lon 53.1788888888889,-6.56888888888889</name>
</wpt>
<!--Waypoints 35-->
<wpt lat="53.1786111111111" lon="-6.56888888888889">
<name>MoonPlusEMinusI Centre 34 Bearing 296.333663166265 Elevation 3.40168410719999 lat/lon 53.1786111111111,-6.56888888888889</name>
</wpt>
<!--Waypoints 36-->
<wpt lat="53.1786111111111" lon="-6.56888888888889">
<name>MoonPlusEMinusI Bottom 35 Bearing 295.854042807379 Elevation 3.41677723912753 lat/lon 53.1786111111111,-6.56888888888889</name>
</wpt>
<!--Waypoints 37-->
<wpt lat="53.1847222222222" lon="-6.53388888888889">
<name>MoonPlusEPlusI Bottom 36 Bearing 39.886735787246 Elevation 1.09260727068507 lat/lon 53.1847222222222,-6.53388888888889</name>
</wpt>
<!--Waypoints 38-->
<wpt lat="53.1847222222222" lon="-6.53416666666667">
<name>MoonPlusEPlusI Centre 37 Bearing 39.1766571249858 Elevation 1.04256836080143 lat/lon 53.1847222222222,-6.53416666666667</name>
</wpt>
<!--Waypoints 39-->
<wpt lat="53.2116666666667" lon="-6.49861111111111">
<name>MoonPlusEPlusI Top 38 Bearing 38.5596659831944 Elevation 1.03570708642954 lat/lon 53.2116666666667,-6.49861111111111</name>
</wpt>
<!--Waypoints 40-->
<wpt lat="53.1786111111111" lon="-6.55888888888889">
<name>MoonPlusEPlusI Top 39 Bearing 315.563605275123 Elevation 3.84371598854679 lat/lon 53.1786111111111,-6.55888888888889</name>
</wpt>
<!--Waypoints 41-->
<wpt lat="53.1783333333333" lon="-6.55888888888889">
<name>MoonPlusEPlusI Centre 40 Bearing 315.182739286256 Elevation 3.76038456829964 lat/lon 53.1783333333333,-6.55888888888889</name>
</wpt>
<!--Waypoints 42-->
<wpt lat="53.1783333333333" lon="-6.55888888888889">
<name>MoonPlusEPlusI Bottom 41 Bearing 314.833070848908 Elevation 3.66127883187653 lat/lon 53.1783333333333,-6.55888888888889</name>
</wpt>
<!--Waypoints 43-->
<wpt lat="53.2175" lon="-6.40444444444444">
<name>CrossQuarterSun1 Bottom 42 Bearing 62.9758802896894 Elevation 1.41798027408227 lat/lon 53.2175,-6.40444444444444</name>
</wpt>
<!--Waypoints 44-->
<wpt lat="53.2183333333333" lon="-6.40444444444444">
<name>CrossQuarterSun1 Centre 43 Bearing 62.4960123322303 Elevation 1.41757658590103 lat/lon 53.2183333333333,-6.40444444444444</name>
</wpt>
<!--Waypoints 45-->
<wpt lat="53.2194444444444" lon="-6.40444444444444">
<name>CrossQuarterSun1 Top 44 Bearing 61.9503383847106 Elevation 1.37845746146351 lat/lon 53.2194444444444,-6.40444444444444</name>
</wpt>
<!--Waypoints 46-->
<wpt lat="53.1783333333333" lon="-6.56916666666667">
<name>CrossQuarterSun1 Top 45 Bearing 294.820951718923 Elevation 3.42777598050434 lat/lon 53.1783333333333,-6.56916666666667</name>
</wpt>
<!--Waypoints 47-->
<wpt lat="53.1783333333333" lon="-6.56916666666667">
<name>CrossQuarterSun1 Centre 46 Bearing 294.367166725825 Elevation 3.41803872914231 lat/lon 53.1783333333333,-6.56916666666667</name>
</wpt>
<!--Waypoints 48-->
<wpt lat="53.1783333333333" lon="-6.56944444444444">
<name>CrossQuarterSun1 Bottom 47 Bearing 293.899828879452 Elevation 3.41798974992149 lat/lon 53.1783333333333,-6.56944444444444</name>
</wpt>
<!--Waypoints 49-->
<wpt lat="53.1491666666667" lon="-6.48888888888889">
<name>CrossQuarterSun2 Bottom 48 Bearing 123.087444957164 Elevation 2.47688646515009 lat/lon 53.1491666666667,-6.48888888888889</name>
</wpt>
<!--Waypoints 50-->
<wpt lat="53.1505555555556" lon="-6.49166666666667">
<name>CrossQuarterSun2 Centre 49 Bearing 122.65549813434 Elevation 2.5204291819306 lat/lon 53.1505555555556,-6.49166666666667</name>
</wpt>
<!--Waypoints 51-->
<wpt lat="53.1513888888889" lon="-6.4925">
<name>CrossQuarterSun2 Top 50 Bearing 122.22980474539 Elevation 2.56689535910572 lat/lon 53.1513888888889,-6.4925</name>
</wpt>
<!--Waypoints 52-->
<wpt lat="53.1633333333333" lon="-6.57555555555556">
<name>CrossQuarterSun2 Top 51 Bearing 237.682066185539 Elevation 2.61864032073276 lat/lon 53.1633333333333,-6.57555555555556</name>
</wpt>
<!--Waypoints 53-->
<wpt lat="53.1633333333333" lon="-6.57583333333333">
<name>CrossQuarterSun2 Centre 52 Bearing 237.236047012886 Elevation 2.58374393473137 lat/lon 53.1633333333333,-6.57583333333333</name>
</wpt>
<!--Waypoints 54-->
<wpt lat="53.1630555555556" lon="-6.57555555555556">
<name>CrossQuarterSun2 Bottom 53 Bearing 236.783776773987 Elevation 2.55162656042462 lat/lon 53.1630555555556,-6.57555555555556</name>
</wpt>
</gpx>
