<?xml version="1.0" encoding="UTF-8" standalone="no" ?>
<gpx>
<!--Centre Waypoint 53.10364004 -6.61637447-->
<wpt lat="53.10364004" lon="-6.61637447">
<name>whiteleas-kd029-032---- lat/lon 53.10364004,-6.61637447</name>
</wpt>
<!--Waypoints 1-->
<wpt lat="53.0827777777778" lon="-6.58888888888889">
<name>WinterSolsticeSun Bottom 0 Bearing 141.764935947553 Elevation 4.45136917672892 lat/lon 53.0827777777778,-6.58888888888889</name>
</wpt>
<!--Waypoints 2-->
<wpt lat="53.0833333333333" lon="-6.58888888888889">
<name>WinterSolsticeSun Centre 1 Bearing 141.015302895583 Elevation 4.4086662978263 lat/lon 53.0833333333333,-6.58888888888889</name>
</wpt>
<!--Waypoints 3-->
<wpt lat="53.0836111111111" lon="-6.58833333333333">
<name>WinterSolsticeSun Top 2 Bearing 140.098066676045 Elevation 4.28626078270528 lat/lon 53.0836111111111,-6.58833333333333</name>
</wpt>
<!--Waypoints 4-->
<wpt lat="53.0808333333333" lon="-6.65722222222222">
<name>WinterSolsticeSun Top 3 Bearing 226.702262360189 Elevation 1.07573968537839 lat/lon 53.0808333333333,-6.65722222222222</name>
</wpt>
<!--Waypoints 5-->
<wpt lat="53.0802777777778" lon="-6.6575">
<name>WinterSolsticeSun Centre 4 Bearing 226.106044700835 Elevation 1.09262762358548 lat/lon 53.0802777777778,-6.6575</name>
</wpt>
<!--Waypoints 6-->
<wpt lat="53.08" lon="-6.65694444444444">
<name>WinterSolsticeSun Bottom 5 Bearing 225.524138563156 Elevation 1.10045363226483 lat/lon 53.08,-6.65694444444444</name>
</wpt>
<!--Waypoints 7-->
<wpt lat="53.2186111111111" lon="-6.39722222222222">
<name>SummerSolsticeSun Bottom 6 Bearing 48.7769772461933 Elevation 0.884936622614585 lat/lon 53.2186111111111,-6.39722222222222</name>
</wpt>
<!--Waypoints 8-->
<wpt lat="53.2180555555556" lon="-6.40222222222222">
<name>SummerSolsticeSun Centre 7 Bearing 48.2542487247197 Elevation 0.89467838957063 lat/lon 53.2180555555556,-6.40222222222222</name>
</wpt>
<!--Waypoints 9-->
<wpt lat="53.2191666666667" lon="-6.40444444444444">
<name>SummerSolsticeSun Top 8 Bearing 47.6859182185488 Elevation 0.883630318215219 lat/lon 53.2191666666667,-6.40444444444444</name>
</wpt>
<!--Waypoints 10-->
<wpt lat="53.2191666666667" lon="-6.40444444444444">
<name>SummerSolsticeSun Top 9 Bearing 47.6726438958237 Elevation 0.877135627180092 lat/lon 53.2191666666667,-6.40444444444444</name>
</wpt>
<!--Waypoints 11-->
<wpt lat="53.2133333333333" lon="-6.41527777777778">
<name>SummerSolsticeSun Top 10 Bearing 47.6726438958237 Elevation 0.877135627180092 lat/lon 53.2133333333333,-6.41527777777778</name>
</wpt>
<!--Waypoints 12-->
<wpt lat="53.1061111111111" lon="-6.62">
<name>SummerSolsticeSun Top 11 Bearing 314.44903166105 Elevation -0.105654217811029 lat/lon 53.1061111111111,-6.62</name>
</wpt>
<!--Waypoints 13-->
<wpt lat="53.1061111111111" lon="-6.62">
<name>SummerSolsticeSun Centre 12 Bearing 313.847012432404 Elevation -0.0892743492093784 lat/lon 53.1061111111111,-6.62</name>
</wpt>
<!--Waypoints 14-->
<wpt lat="53.1061111111111" lon="-6.62027777777778">
<name>SummerSolsticeSun Bottom 13 Bearing 313.250805969025 Elevation -0.0733127821051884 lat/lon 53.1061111111111,-6.62027777777778</name>
</wpt>
<!--Waypoints 15-->
<wpt lat="53.1061111111111" lon="-6.62">
<name>SummerSolsticeSun Bottom 14 Bearing 313.250805969025 Elevation -0.0733127821051884 lat/lon 53.1061111111111,-6.62</name>
</wpt>
<!--Waypoints 16-->
<wpt lat="53.1061111111111" lon="-6.62">
<name>SummerSolsticeSun Bottom 15 Bearing 313.230695740764 Elevation -0.0642454891705377 lat/lon 53.1061111111111,-6.62</name>
</wpt>
<!--Waypoints 17-->
<wpt lat="53.1016666666667" lon="-6.57111111111111">
<name>EquinoxSun Bottom 16 Bearing 94.3827253071525 Elevation 3.17666606758996 lat/lon 53.1016666666667,-6.57111111111111</name>
</wpt>
<!--Waypoints 18-->
<wpt lat="53.1019444444444" lon="-6.57111111111111">
<name>EquinoxSun Centre 17 Bearing 93.9354495977043 Elevation 3.17574106727073 lat/lon 53.1019444444444,-6.57111111111111</name>
</wpt>
<!--Waypoints 19-->
<wpt lat="53.1022222222222" lon="-6.57138888888889">
<name>EquinoxSun Top 18 Bearing 93.5015349226164 Elevation 3.1841736332365 lat/lon 53.1022222222222,-6.57138888888889</name>
</wpt>
<!--Waypoints 20-->
<wpt lat="53.1038888888889" lon="-6.6675">
<name>EquinoxSun Top 19 Bearing 270.393365456393 Elevation 0.51233493331009 lat/lon 53.1038888888889,-6.6675</name>
</wpt>
<!--Waypoints 21-->
<wpt lat="53.1036111111111" lon="-6.6675">
<name>EquinoxSun Centre 20 Bearing 269.953349497408 Elevation 0.509635083188087 lat/lon 53.1036111111111,-6.6675</name>
</wpt>
<!--Waypoints 22-->
<wpt lat="53.1036111111111" lon="-6.66833333333333">
<name>EquinoxSun Bottom 21 Bearing 269.519997946347 Elevation 0.502651249123602 lat/lon 53.1036111111111,-6.66833333333333</name>
</wpt>
<!--Waypoints 23-->
<wpt lat="53.0427777777778" lon="-6.56472222222222">
<name>MoonMinusEMinusI Bottom 22 Bearing 153.033492640851 Elevation 2.45087437915816 lat/lon 53.0427777777778,-6.56472222222222</name>
</wpt>
<!--Waypoints 24-->
<wpt lat="53.0433333333333" lon="-6.56388888888889">
<name>MoonMinusEMinusI Centre 23 Bearing 152.426558863749 Elevation 2.51813656306924 lat/lon 53.0433333333333,-6.56388888888889</name>
</wpt>
<!--Waypoints 25-->
<wpt lat="53.0438888888889" lon="-6.56277777777778">
<name>MoonMinusEMinusI Top 24 Bearing 151.74869468486 Elevation 2.55937595067453 lat/lon 53.0438888888889,-6.56277777777778</name>
</wpt>
<!--Waypoints 26-->
<wpt lat="53.0713888888889" lon="-6.65166666666667">
<name>MoonMinusEMinusI Top 25 Bearing 213.298664508075 Elevation 0.833488542279803 lat/lon 53.0713888888889,-6.65166666666667</name>
</wpt>
<!--Waypoints 27-->
<wpt lat="53.0711111111111" lon="-6.65166666666667">
<name>MoonMinusEMinusI Centre 26 Bearing 212.742006611276 Elevation 0.785642013912185 lat/lon 53.0711111111111,-6.65166666666667</name>
</wpt>
<!--Waypoints 28-->
<wpt lat="53.0705555555556" lon="-6.65111111111111">
<name>MoonMinusEMinusI Bottom 27 Bearing 212.234090177055 Elevation 0.718878899619786 lat/lon 53.0705555555556,-6.65111111111111</name>
</wpt>
<!--Waypoints 29-->
<wpt lat="53.0847222222222" lon="-6.57583333333333">
<name>MoonMinusEPlusI Bottom 28 Bearing 128.353172666904 Elevation 2.53153536508113 lat/lon 53.0847222222222,-6.57583333333333</name>
</wpt>
<!--Waypoints 30-->
<wpt lat="53.0847222222222" lon="-6.57555555555556">
<name>MoonMinusEPlusI Centre 29 Bearing 127.963802804506 Elevation 2.60211483114938 lat/lon 53.0847222222222,-6.57555555555556</name>
</wpt>
<!--Waypoints 31-->
<wpt lat="53.085" lon="-6.57583333333333">
<name>MoonMinusEPlusI Top 30 Bearing 127.553311538517 Elevation 2.66055515227382 lat/lon 53.085,-6.57583333333333</name>
</wpt>
<!--Waypoints 32-->
<wpt lat="53.0863888888889" lon="-6.65805555555556">
<name>MoonMinusEPlusI Top 31 Bearing 234.942292308064 Elevation 1.29223866199812 lat/lon 53.0863888888889,-6.65805555555556</name>
</wpt>
<!--Waypoints 33-->
<wpt lat="53.0858333333333" lon="-6.65805555555556">
<name>MoonMinusEPlusI Centre 32 Bearing 234.328376812523 Elevation 1.35352079739054 lat/lon 53.0858333333333,-6.65805555555556</name>
</wpt>
<!--Waypoints 34-->
<wpt lat="53.0855555555556" lon="-6.65722222222222">
<name>MoonMinusEPlusI Bottom 33 Bearing 233.593070534627 Elevation 1.4782796574263 lat/lon 53.0855555555556,-6.65722222222222</name>
</wpt>
<!--Waypoints 35-->
<wpt lat="53.1866666666667" lon="-6.36583333333333">
<name>MoonPlusEMinusI Bottom 34 Bearing 61.0010137291733 Elevation 1.39332457907179 lat/lon 53.1866666666667,-6.36583333333333</name>
</wpt>
<!--Waypoints 36-->
<wpt lat="53.1491666666667" lon="-6.48222222222222">
<name>MoonPlusEMinusI Centre 35 Bearing 60.5353070323597 Elevation 1.39492784993537 lat/lon 53.1491666666667,-6.48222222222222</name>
</wpt>
<!--Waypoints 37-->
<wpt lat="53.1888888888889" lon="-6.36861111111111">
<name>MoonPlusEMinusI Top 36 Bearing 60.1029878394391 Elevation 1.41729406255553 lat/lon 53.1888888888889,-6.36861111111111</name>
</wpt>
<!--Waypoints 38-->
<wpt lat="53.1141666666667" lon="-6.64416666666667">
<name>MoonPlusEMinusI Top 37 Bearing 302.196575272362 Elevation 0.118719305108912 lat/lon 53.1141666666667,-6.64416666666667</name>
</wpt>
<!--Waypoints 39-->
<wpt lat="53.1141666666667" lon="-6.64444444444444">
<name>MoonPlusEMinusI Centre 38 Bearing 301.718450439022 Elevation 0.117326074540428 lat/lon 53.1141666666667,-6.64444444444444</name>
</wpt>
<!--Waypoints 40-->
<wpt lat="53.1138888888889" lon="-6.64444444444444">
<name>MoonPlusEMinusI Bottom 39 Bearing 301.239801437291 Elevation 0.117139326199204 lat/lon 53.1138888888889,-6.64444444444444</name>
</wpt>
<!--Waypoints 41-->
<wpt lat="53.2519444444444" lon="-6.41861111111111">
<name>MoonPlusEPlusI Bottom 40 Bearing 38.5896637037772 Elevation 0.501784876395166 lat/lon 53.2519444444444,-6.41861111111111</name>
</wpt>
<!--Waypoints 42-->
<wpt lat="53.1422222222222" lon="-6.56638888888889">
<name>MoonPlusEPlusI Centre 41 Bearing 37.9187174487611 Elevation 0.477041583362738 lat/lon 53.1422222222222,-6.56638888888889</name>
</wpt>
<!--Waypoints 43-->
<wpt lat="53.1425" lon="-6.56722222222222">
<name>MoonPlusEPlusI Top 42 Bearing 37.2160282171861 Elevation 0.443321711224877 lat/lon 53.1425,-6.56722222222222</name>
</wpt>
<!--Waypoints 44-->
<wpt lat="53.1091666666667" lon="-6.62277777777778">
<name>MoonPlusEPlusI Top 43 Bearing 324.267873004841 Elevation -0.115275631786857 lat/lon 53.1091666666667,-6.62277777777778</name>
</wpt>
<!--Waypoints 45-->
<wpt lat="53.1088888888889" lon="-6.62277777777778">
<name>MoonPlusEPlusI Centre 44 Bearing 323.651147775931 Elevation -0.123638493255389 lat/lon 53.1088888888889,-6.62277777777778</name>
</wpt>
<!--Waypoints 46-->
<wpt lat="53.1080555555556" lon="-6.62166666666667">
<name>MoonPlusEPlusI Bottom 45 Bearing 323.066337454455 Elevation -0.141215358749928 lat/lon 53.1080555555556,-6.62166666666667</name>
</wpt>
<!--Waypoints 47-->
<wpt lat="53.1166666666667" lon="-6.57333333333333">
<name>CrossQuarterSun1 Bottom 46 Bearing 63.7617574387251 Elevation 1.87550875974592 lat/lon 53.1166666666667,-6.57333333333333</name>
</wpt>
<!--Waypoints 48-->
<wpt lat="53.1169444444444" lon="-6.57333333333333">
<name>CrossQuarterSun1 Centre 47 Bearing 63.1298926113783 Elevation 1.77798471972816 lat/lon 53.1169444444444,-6.57333333333333</name>
</wpt>
<!--Waypoints 49-->
<wpt lat="53.1172222222222" lon="-6.57333333333333">
<name>CrossQuarterSun1 Top 48 Bearing 62.2868519305473 Elevation 1.55337069569531 lat/lon 53.1172222222222,-6.57333333333333</name>
</wpt>
<!--Waypoints 50-->
<wpt lat="53.1136111111111" lon="-6.64444444444444">
<name>CrossQuarterSun1 Top 49 Bearing 300.25304602634 Elevation 0.0939707787408796 lat/lon 53.1136111111111,-6.64444444444444</name>
</wpt>
<!--Waypoints 51-->
<wpt lat="53.1133333333333" lon="-6.64444444444444">
<name>CrossQuarterSun1 Centre 50 Bearing 299.760400711282 Elevation 0.0952196214086404 lat/lon 53.1133333333333,-6.64444444444444</name>
</wpt>
<!--Waypoints 52-->
<wpt lat="53.1133333333333" lon="-6.64444444444444">
<name>CrossQuarterSun1 Bottom 51 Bearing 299.273951092069 Elevation 0.0940297010452981 lat/lon 53.1133333333333,-6.64444444444444</name>
</wpt>
<!--Waypoints 53-->
<wpt lat="53.0861111111111" lon="-6.57333333333333">
<name>CrossQuarterSun2 Bottom 52 Bearing 124.328127186027 Elevation 3.23468513899163 lat/lon 53.0861111111111,-6.57333333333333</name>
</wpt>
<!--Waypoints 54-->
<wpt lat="53.0863888888889" lon="-6.57333333333333">
<name>CrossQuarterSun2 Centre 53 Bearing 123.916719275762 Elevation 3.2940529495515 lat/lon 53.0863888888889,-6.57333333333333</name>
</wpt>
<!--Waypoints 55-->
<wpt lat="53.0869444444444" lon="-6.57388888888889">
<name>CrossQuarterSun2 Top 54 Bearing 123.511588077981 Elevation 3.3564268872975 lat/lon 53.0869444444444,-6.57388888888889</name>
</wpt>
<!--Waypoints 56-->
<wpt lat="53.0902777777778" lon="-6.65555555555556">
<name>CrossQuarterSun2 Top 55 Bearing 240.230916719481 Elevation 1.16068936353428 lat/lon 53.0902777777778,-6.65555555555556</name>
</wpt>
<!--Waypoints 57-->
<wpt lat="53.09" lon="-6.65555555555556">
<name>CrossQuarterSun2 Centre 56 Bearing 239.724348381913 Elevation 1.16959708767008 lat/lon 53.09,-6.65555555555556</name>
</wpt>
<!--Waypoints 58-->
<wpt lat="53.09" lon="-6.65527777777778">
<name>CrossQuarterSun2 Bottom 57 Bearing 239.204869725105 Elevation 1.18480372632438 lat/lon 53.09,-6.65527777777778</name>
</wpt>
</gpx>
