<?xml version="1.0" encoding="UTF-8" standalone="no" ?>
<gpx>
<!--Centre Waypoint 53.04296499 -6.69542109-->
<wpt lat="53.04296499" lon="-6.69542109">
<name>tornant-upper-wi015-037---- lat/lon 53.04296499,-6.69542109</name>
</wpt>
<!--Waypoints 1-->
<wpt lat="53.0363888888889" lon="-6.68388888888889">
<name>WinterSolsticeSun Bottom 0 Bearing 134.08008753326 Elevation 0.950659302485991 lat/lon 53.0363888888889,-6.68388888888889</name>
</wpt>
<!--Waypoints 2-->
<wpt lat="53.0363888888889" lon="-6.68388888888889">
<name>WinterSolsticeSun Centre 1 Bearing 133.484862279726 Elevation 0.934271812741239 lat/lon 53.0363888888889,-6.68388888888889</name>
</wpt>
<!--Waypoints 3-->
<wpt lat="53.0366666666667" lon="-6.68388888888889">
<name>WinterSolsticeSun Top 2 Bearing 132.788445268755 Elevation 0.866811379981189 lat/lon 53.0366666666667,-6.68388888888889</name>
</wpt>
<!--Waypoints 4-->
<wpt lat="52.8302777777778" lon="-7.10222222222222">
<name>WinterSolsticeSun Top 3 Bearing 229.200785940526 Elevation -0.0828052820914908 lat/lon 52.8302777777778,-7.10222222222222</name>
</wpt>
<!--Waypoints 5-->
<wpt lat="52.8525" lon="-7.05222222222222">
<name>WinterSolsticeSun Centre 4 Bearing 228.591918215814 Elevation -0.0495189261760913 lat/lon 52.8525,-7.05222222222222</name>
</wpt>
<!--Waypoints 6-->
<wpt lat="52.8508333333333" lon="-7.04861111111111">
<name>WinterSolsticeSun Bottom 5 Bearing 228.030247866629 Elevation -0.0403979344411876 lat/lon 52.8508333333333,-7.04861111111111</name>
</wpt>
<!--Waypoints 7-->
<wpt lat="53.1536111111111" lon="-6.48861111111111">
<name>SummerSolsticeSun Bottom 6 Bearing 48.2518322905292 Elevation 0.592288463254767 lat/lon 53.1536111111111,-6.48861111111111</name>
</wpt>
<!--Waypoints 8-->
<wpt lat="53.215" lon="-6.37833333333333">
<name>SummerSolsticeSun Centre 7 Bearing 47.7757147315702 Elevation 0.625950250268436 lat/lon 53.215,-6.37833333333333</name>
</wpt>
<!--Waypoints 9-->
<wpt lat="53.2163888888889" lon="-6.38027777777778">
<name>SummerSolsticeSun Top 8 Bearing 47.3801766589848 Elevation 0.699596274470181 lat/lon 53.2163888888889,-6.38027777777778</name>
</wpt>
<!--Waypoints 10-->
<wpt lat="53.0433333333333" lon="-6.69611111111111">
<name>SummerSolsticeSun Top 9 Bearing 311.572761893557 Elevation 1.21756851699926 lat/lon 53.0433333333333,-6.69611111111111</name>
</wpt>
<!--Waypoints 11-->
<wpt lat="53.0433333333333" lon="-6.69611111111111">
<name>SummerSolsticeSun Centre 10 Bearing 311.063991091689 Elevation 1.20209508912962 lat/lon 53.0433333333333,-6.69611111111111</name>
</wpt>
<!--Waypoints 12-->
<wpt lat="53.0433333333333" lon="-6.69611111111111">
<name>SummerSolsticeSun Bottom 11 Bearing 310.547776582322 Elevation 1.19191197023534 lat/lon 53.0433333333333,-6.69611111111111</name>
</wpt>
<!--Waypoints 13-->
<wpt lat="53.04" lon="-6.56277777777778">
<name>EquinoxSun Bottom 12 Bearing 92.0918255510623 Elevation 1.57599026165349 lat/lon 53.04,-6.56277777777778</name>
</wpt>
<!--Waypoints 14-->
<wpt lat="53.0405555555556" lon="-6.56277777777778">
<name>EquinoxSun Centre 13 Bearing 91.7116651883504 Elevation 1.61971032741862 lat/lon 53.0405555555556,-6.56277777777778</name>
</wpt>
<!--Waypoints 15-->
<wpt lat="53.0411111111111" lon="-6.56333333333333">
<name>EquinoxSun Top 14 Bearing 91.3181670494858 Elevation 1.65429986752652 lat/lon 53.0411111111111,-6.56333333333333</name>
</wpt>
<!--Waypoints 16-->
<wpt lat="53.0430555555556" lon="-6.69694444444444">
<name>EquinoxSun Top 15 Bearing 269.694202106902 Elevation 0.969513731714843 lat/lon 53.0430555555556,-6.69694444444444</name>
</wpt>
<!--Waypoints 17-->
<wpt lat="53.0430555555556" lon="-6.69694444444444">
<name>EquinoxSun Centre 16 Bearing 269.274141047948 Elevation 0.953872106160513 lat/lon 53.0430555555556,-6.69694444444444</name>
</wpt>
<!--Waypoints 18-->
<wpt lat="53.0430555555556" lon="-6.69694444444444">
<name>EquinoxSun Bottom 17 Bearing 268.867402398006 Elevation 0.929395617076773 lat/lon 53.0430555555556,-6.69694444444444</name>
</wpt>
<!--Waypoints 19-->
<wpt lat="53.0336111111111" lon="-6.68583333333333">
<name>MoonMinusEMinusI Bottom 18 Bearing 148.74658494953 Elevation 1.10024828038381 lat/lon 53.0336111111111,-6.68583333333333</name>
</wpt>
<!--Waypoints 20-->
<wpt lat="53.0338888888889" lon="-6.68583333333333">
<name>MoonMinusEMinusI Centre 19 Bearing 147.981567977137 Elevation 1.08357079703637 lat/lon 53.0338888888889,-6.68583333333333</name>
</wpt>
<!--Waypoints 21-->
<wpt lat="53.0338888888889" lon="-6.68583333333333">
<name>MoonMinusEMinusI Centre 20 Bearing 147.961227355098 Elevation 1.07648461966595 lat/lon 53.0338888888889,-6.68583333333333</name>
</wpt>
<!--Waypoints 22-->
<wpt lat="53.0338888888889" lon="-6.68583333333333">
<name>MoonMinusEMinusI Centre 21 Bearing 147.961227355098 Elevation 1.07648461966595 lat/lon 53.0338888888889,-6.68583333333333</name>
</wpt>
<!--Waypoints 23-->
<wpt lat="53.0338888888889" lon="-6.68555555555556">
<name>MoonMinusEMinusI Top 22 Bearing 147.140489702994 Elevation 1.03479175927542 lat/lon 53.0338888888889,-6.68555555555556</name>
</wpt>
<!--Waypoints 24-->
<wpt lat="52.7288888888889" lon="-7.07083333333333">
<name>MoonMinusEMinusI Top 23 Bearing 215.940654762543 Elevation -0.0739899138880078 lat/lon 52.7288888888889,-7.07083333333333</name>
</wpt>
<!--Waypoints 25-->
<wpt lat="52.7241666666667" lon="-7.06861111111111">
<name>MoonMinusEMinusI Centre 24 Bearing 215.362757823072 Elevation -0.0987764260165312 lat/lon 52.7241666666667,-7.06861111111111</name>
</wpt>
<!--Waypoints 26-->
<wpt lat="52.7222222222222" lon="-7.0625">
<name>MoonMinusEMinusI Bottom 25 Bearing 214.752838306236 Elevation -0.11457006523796 lat/lon 52.7222222222222,-7.0625</name>
</wpt>
<!--Waypoints 27-->
<wpt lat="52.9597222222222" lon="-6.50722222222222">
<name>MoonMinusEPlusI Bottom 26 Bearing 126.249521534023 Elevation 1.42675877714397 lat/lon 52.9597222222222,-6.50722222222222</name>
</wpt>
<!--Waypoints 28-->
<wpt lat="52.9605555555556" lon="-6.50472222222222">
<name>MoonMinusEPlusI Centre 27 Bearing 125.622626149368 Elevation 1.35973071136857 lat/lon 52.9605555555556,-6.50472222222222</name>
</wpt>
<!--Waypoints 29-->
<wpt lat="52.9605555555556" lon="-6.50166666666667">
<name>MoonMinusEPlusI Top 28 Bearing 125.2114897205 Elevation 1.40869111198595 lat/lon 52.9605555555556,-6.50166666666667</name>
</wpt>
<!--Waypoints 30-->
<wpt lat="53.0411111111111" lon="-6.70083333333333">
<name>MoonMinusEPlusI Top 29 Bearing 237.254798411467 Elevation 0.0831574882665461 lat/lon 53.0411111111111,-6.70083333333333</name>
</wpt>
<!--Waypoints 31-->
<wpt lat="53.0411111111111" lon="-6.70083333333333">
<name>MoonMinusEPlusI Centre 30 Bearing 236.829623209726 Elevation 0.0511759994076544 lat/lon 53.0411111111111,-6.70083333333333</name>
</wpt>
<!--Waypoints 32-->
<wpt lat="53.0408333333333" lon="-6.70083333333333">
<name>MoonMinusEPlusI Bottom 31 Bearing 236.418330006889 Elevation 0.0113334810019079 lat/lon 53.0408333333333,-6.70083333333333</name>
</wpt>
<!--Waypoints 33-->
<wpt lat="53.08" lon="-6.58611111111111">
<name>MoonPlusEMinusI Bottom 32 Bearing 60.6701677639716 Elevation 1.17025619184804 lat/lon 53.08,-6.58611111111111</name>
</wpt>
<!--Waypoints 34-->
<wpt lat="53.0805555555556" lon="-6.58666666666667">
<name>MoonPlusEMinusI Centre 33 Bearing 60.1123423801786 Elevation 1.11806139325433 lat/lon 53.0805555555556,-6.58666666666667</name>
</wpt>
<!--Waypoints 35-->
<wpt lat="53.0808333333333" lon="-6.58777777777778">
<name>MoonPlusEMinusI Top 34 Bearing 59.6274681748031 Elevation 1.10999417954176 lat/lon 53.0808333333333,-6.58777777777778</name>
</wpt>
<!--Waypoints 36-->
<wpt lat="53.0433333333333" lon="-6.69638888888889">
<name>MoonPlusEMinusI Top 35 Bearing 300.603126370188 Elevation 0.975958245144795 lat/lon 53.0433333333333,-6.69638888888889</name>
</wpt>
<!--Waypoints 37-->
<wpt lat="53.0433333333333" lon="-6.69638888888889">
<name>MoonPlusEMinusI Centre 36 Bearing 300.131459123844 Elevation 0.975642599191618 lat/lon 53.0433333333333,-6.69638888888889</name>
</wpt>
<!--Waypoints 38-->
<wpt lat="53.0433333333333" lon="-6.69638888888889">
<name>MoonPlusEMinusI Bottom 37 Bearing 299.659284375527 Elevation 0.976509649640627 lat/lon 53.0433333333333,-6.69638888888889</name>
</wpt>
<!--Waypoints 39-->
<wpt lat="53.2538888888889" lon="-6.42222222222222">
<name>MoonPlusEPlusI Bottom 38 Bearing 37.7629235400532 Elevation 0.134335084217044 lat/lon 53.2538888888889,-6.42222222222222</name>
</wpt>
<!--Waypoints 40-->
<wpt lat="53.2527777777778" lon="-6.43027777777778">
<name>MoonPlusEPlusI Centre 39 Bearing 37.078586351828 Elevation 0.109586338605852 lat/lon 53.2527777777778,-6.43027777777778</name>
</wpt>
<!--Waypoints 41-->
<wpt lat="53.2547222222222" lon="-6.43472222222222">
<name>MoonPlusEPlusI Top 40 Bearing 36.3624101325763 Elevation 0.0764809676985859 lat/lon 53.2547222222222,-6.43472222222222</name>
</wpt>
<!--Waypoints 42-->
<wpt lat="53.5427777777778" lon="-7.28972222222222">
<name>MoonPlusEPlusI Top 41 Bearing 324.820313043139 Elevation -0.356174498503921 lat/lon 53.5427777777778,-7.28972222222222</name>
</wpt>
<!--Waypoints 43-->
<wpt lat="53.2297222222222" lon="-6.92111111111111">
<name>MoonPlusEPlusI Centre 42 Bearing 324.110381204425 Elevation -0.333102440094029 lat/lon 53.2297222222222,-6.92111111111111</name>
</wpt>
<!--Waypoints 44-->
<wpt lat="53.2294444444444" lon="-6.92111111111111">
<name>MoonPlusEPlusI Centre 43 Bearing 324.097059820547 Elevation -0.328218186862923 lat/lon 53.2294444444444,-6.92111111111111</name>
</wpt>
<!--Waypoints 45-->
<wpt lat="53.2294444444444" lon="-6.92111111111111">
<name>MoonPlusEPlusI Centre 44 Bearing 324.083739269549 Elevation -0.323333530478994 lat/lon 53.2294444444444,-6.92111111111111</name>
</wpt>
<!--Waypoints 46-->
<wpt lat="53.2286111111111" lon="-6.92527777777778">
<name>MoonPlusEPlusI Bottom 45 Bearing 323.445734212979 Elevation -0.323054980676596 lat/lon 53.2286111111111,-6.92527777777778</name>
</wpt>
<!--Waypoints 47-->
<wpt lat="53.1213888888889" lon="-6.445">
<name>CrossQuarterSun1 Bottom 46 Bearing 62.4105502414578 Elevation 1.02623989742483 lat/lon 53.1213888888889,-6.445</name>
</wpt>
<!--Waypoints 48-->
<wpt lat="53.0786111111111" lon="-6.58472222222222">
<name>CrossQuarterSun1 Centre 47 Bearing 61.917469472144 Elevation 1.0186188985109 lat/lon 53.0786111111111,-6.58472222222222</name>
</wpt>
<!--Waypoints 49-->
<wpt lat="53.0788888888889" lon="-6.585">
<name>CrossQuarterSun1 Top 48 Bearing 61.5773845272647 Elevation 1.102073660815 lat/lon 53.0788888888889,-6.585</name>
</wpt>
<!--Waypoints 50-->
<wpt lat="53.0433333333333" lon="-6.69638888888889">
<name>CrossQuarterSun1 Top 49 Bearing 298.634846060211 Elevation 0.977213152085542 lat/lon 53.0433333333333,-6.69638888888889</name>
</wpt>
<!--Waypoints 51-->
<wpt lat="53.0433333333333" lon="-6.69638888888889">
<name>CrossQuarterSun1 Centre 50 Bearing 298.16878172517 Elevation 0.96784157447084 lat/lon 53.0433333333333,-6.69638888888889</name>
</wpt>
<!--Waypoints 52-->
<wpt lat="53.0433333333333" lon="-6.69638888888889">
<name>CrossQuarterSun1 Bottom 51 Bearing 297.688973730941 Elevation 0.967374281027921 lat/lon 53.0433333333333,-6.69638888888889</name>
</wpt>
<!--Waypoints 53-->
<wpt lat="52.9638888888889" lon="-6.48055555555556">
<name>CrossQuarterSun2 Bottom 52 Bearing 121.411318949281 Elevation 1.56908411346495 lat/lon 52.9638888888889,-6.48055555555556</name>
</wpt>
<!--Waypoints 54-->
<wpt lat="52.9641666666667" lon="-6.47777777777778">
<name>CrossQuarterSun2 Centre 53 Bearing 121.019316800258 Elevation 1.62954411016663 lat/lon 52.9641666666667,-6.47777777777778</name>
</wpt>
<!--Waypoints 55-->
<wpt lat="52.9644444444444" lon="-6.47611111111111">
<name>CrossQuarterSun2 Top 54 Bearing 120.694046461009 Elevation 1.72882847293067 lat/lon 52.9644444444444,-6.47611111111111</name>
</wpt>
<!--Waypoints 56-->
<wpt lat="53.0413888888889" lon="-6.70083333333333">
<name>CrossQuarterSun2 Top 55 Bearing 241.739654061901 Elevation 0.325917333771078 lat/lon 53.0413888888889,-6.70083333333333</name>
</wpt>
<!--Waypoints 57-->
<wpt lat="53.0413888888889" lon="-6.70111111111111">
<name>CrossQuarterSun2 Centre 56 Bearing 241.266522880086 Elevation 0.32031247083622 lat/lon 53.0413888888889,-6.70111111111111</name>
</wpt>
<!--Waypoints 58-->
<wpt lat="53.0411111111111" lon="-6.70111111111111">
<name>CrossQuarterSun2 Bottom 57 Bearing 240.787218123062 Elevation 0.317327639245641 lat/lon 53.0411111111111,-6.70111111111111</name>
</wpt>
</gpx>
